all,Longitude,Latitude,Address,latitude,longitude
,0.0,0.0,,0.0,0.0
McDonald's,0.0,0.0,"13040 Coit At L B J, Dallas, TX 75201",0.0,0.0
McDonald's,-88.11,41.63,"1300 Marquette Dr, Romeoville, IL 60446",41.63,-88.11
McDonald's,-111.998407,41.271876,"534 N Harrisville Rd, Ogden, UT 84404",41.271876,-111.998407
McDonald's,-111.946488,41.185002,"3875 Washington Blvd, Ogden, UT 84403",41.185002,-111.946488
McDonald's,-111.796354,40.393885,"850 E Main St, American Fork, UT 84003",40.393885,-111.796354
McDonald's,-111.96844,41.164148,"4848 S 900 W, Ogden, UT 84405",41.164148,-111.96844
McDonald's,-111.992694,41.176697,"909 W Riverdale Rd, Riverdale, UT 84405",41.176697,-111.992694
McDonald's,-111.946488,41.185002,"5745 Harrison Blvd, South Ogden, UT 84403",41.185002,-111.946488
McDonald's,-111.866853,40.508883,"303 E 12300 S, Draper, UT 84020",40.508883,-111.866853
McDonald's,-111.823364,40.667437,"1877 Murray Holladay Rd, Holladay, UT 84117",40.667437,-111.823364
McDonald's,0.0,0.0,"3497 S 5600 W, West Valley City, UT 84120",0.0,0.0
McDonald's,0.0,0.0,"4217 S Redwood Rd, Salt Lake City, UT 84123",0.0,0.0
McDonald's,0.0,0.0,"3464 W 3500 S, Salt Lake City, UT 84119",0.0,0.0
McDonald's,0.0,0.0,"2064 S 300 W, Salt Lake City, UT 84115",0.0,0.0
McDonald's,0.0,0.0,"36 S State St, Salt Lake City, UT 84111",0.0,0.0
McDonald's,-98.273749,29.844295,"8036 Fm 2673, Canyon Lake, TX 78133",29.844295,-98.273749
McDonald's,-97.307988,30.118028,"WAL-MART Supercenter, Bastrop, TX 78602",30.118028,-97.307988
McDonald's,-97.307988,30.118028,"496 Highway 71 W, Bastrop, TX 78602",30.118028,-97.307988
McDonald's,-97.65146,30.639953,"620 S Ih 35, Georgetown, TX 78626",30.639953,-97.65146
McDonald's,-97.411538,30.227768,"220 Highway 290 E, Elgin, TX 78621",30.227768,-97.411538
McDonald's,-97.805912,30.29132,"3300 Bee Cave Rd, West Lake Hills, TX 78746",30.29132,-97.805912
McDonald's,-97.95795,35.02759,"1901 Interstate 44, Chickasha, OK 73018",35.02759,-97.95795
McDonald's,-97.480464,35.200412,"I-35, Norman, OK 73069",35.200412,-97.480464
McDonald's,-97.617646,35.241991,"3524 Hill Star Dr, Newcastle, OK 73065",35.241991,-97.617646
McDonald's,-97.733309,35.391289,"400 N Trade Center Ter Apt 101, Mustang, OK 73064",35.391289,-97.733309
McDonald's,-97.522603,35.673776,"1235 N Kelly Ave, Edmond, OK 73003",35.673776,-97.522603
McDonald's,0.0,0.0,"630 Nw 12th St, Oklahoma City, OK 73160",0.0,0.0
McDonald's,-97.638217,35.55421,"5812 NW Expressway St, Warr Acres, OK 73132",35.55421,-97.638217
McDonald's,-97.558907,35.384679,"9001 S Pennsylvania Ave, Oklahoma City, OK 73159",35.384679,-97.558907
McDonald's,-87.77,41.79,"5700 S Cicero Ave, Chicago, IL 60638",41.79,-87.77
McDonald's,-97.52668,35.3845,"7525 S Western Ave, Oklahoma City, OK 73139",35.3845,-97.52668
McDonald's,0.0,0.0,"9000 SE 29th St, Oklahoma City, OK 73130",0.0,0.0
McDonald's,-97.418491,35.223852,"1150 Alameda St, Norman, OK 73071",35.223852,-97.418491
McDonald's,-87.77,41.79,"6430 S Cicero Ave, Chicago, IL 60638",41.79,-87.77
McDonald's,0.0,0.0,"4502 SE 29th St, Oklahoma City, OK 73115",0.0,0.0
McDonald's,-70.738723,43.108692,"Route 1, Kittery, ME 03904",43.108692,-70.738723
McDonald's,-70.060612,43.996646,"Lisbon Falls, ME 04252",43.996646,-70.060612
McDonald's,-87.74,41.9,"5153 W Chicago Ave, Chicago, IL 60651",41.9,-87.74
McDonald's,-69.963854,43.916805,"7 Gurnet Rd, Brunswick, ME 04011",43.916805,-69.963854
McDonald's,-87.71,41.78,"6737 S Pulaski Rd, Chicago, IL 60629",41.78,-87.71
McDonald's,-70.187364,43.800875,"750 Route 1, Yarmouth, ME 04096",43.800875,-70.187364
McDonald's,-70.232764,43.72049,"Rt 1, Falmouth, ME 04105",43.72049,-70.232764
McDonald's,-90.417682,32.85015,"741 E Fifteenth St, Yazoo City, MS 39194",32.85015,-90.417682
McDonald's,-90.257342,32.328255,"4675 Clinton Blvd, Jackson, MS 39209",32.328255,-90.257342
McDonald's,-122.29699,38.334514,"3392 Solano Ave, Napa, CA 94558",38.334514,-122.29699
McDonald's,-87.82,41.89,"624 N Harlem Ave, River Forest, IL 60305",41.89,-87.82
McDonald's,-121.293466,37.920692,"611 W Charter Way, Stockton, CA 95206",37.920692,-121.293466
McDonald's,-121.324129,38.003219,"4515 Pacific Ave, Stockton, CA 95207",38.003219,-121.324129
McDonald's,-121.290719,37.95362,"1049 E March Ln, Stockton, CA 95210",37.95362,-121.290719
McDonald's,-121.365866,38.006728,"3143 W Benjamin Holt Dr, Stockton, CA 95219",38.006728,-121.365866
McDonald's,-121.260253,38.122174,"841 E Kettleman Ln, Lodi, CA 95240",38.122174,-121.260253
McDonald's,-121.289638,38.884667,"270 G St, Lincoln, CA 95648",38.884667,-121.289638
McDonald's,-121.148198,38.670193,"1018 Riley St, Folsom, CA 95630",38.670193,-121.148198
McDonald's,-121.259746,38.655669,"8888 Madison Ave, Fair Oaks, CA 95628",38.655669,-121.259746
McDonald's,-121.229879,38.559422,"11250 White Rock Rd, Rancho Cordova, CA 95742",38.559422,-121.229879
McDonald's,-121.279129,38.604495,"2400 Sunrise Blvd, Gold River, CA 95670",38.604495,-121.279129
McDonald's,-121.279129,38.604495,"10655 Folsom Blvd, Rancho Cordova, CA 95670",38.604495,-121.279129
McDonald's,-121.347731,38.687873,"5301 Elkhorn Blvd, Sacramento, CA 95842",38.687873,-121.347731
McDonald's,-121.364694,38.716813,"7901 Watt Ave, Antelope, CA 95843",38.716813,-121.364694
McDonald's,-121.279129,38.604495,"10355 Folsom Blvd, Rancho Cordova, CA 95670",38.604495,-121.279129
McDonald's,-121.344554,38.66265,"5008 Auburn Blvd, Sacramento, CA 95841",38.66265,-121.344554
McDonald's,-121.329692,38.566279,"3560 Bradshaw Rd, Sacramento, CA 95827",38.566279,-121.329692
McDonald's,-121.406707,38.636459,"4957 Watt Ave, North Highlands, CA 95660",38.636459,-121.406707
McDonald's,-121.383161,38.623431,"4121 Marconi Ave, Sacramento, CA 95821",38.623431,-121.383161
McDonald's,-121.531556,38.494862,"8940 Pocket Rd, Sacramento, CA 95831",38.494862,-121.531556
McDonald's,-121.373753,38.551991,"8901 Folsom Blvd, Sacramento, CA 95826",38.551991,-121.373753
McDonald's,-121.444149,38.47449,"6975 Stockton Blvd, Sacramento, CA 95823",38.47449,-121.444149
McDonald's,-121.383161,38.623431,"2535 Watt Ave, Sacramento, CA 95821",38.623431,-121.383161
McDonald's,-121.444149,38.47449,"4125 Florin Rd, Sacramento, CA 95823",38.47449,-121.444149
McDonald's,-87.85,41.88,"11 N 1st Ave, Maywood, IL 60153",41.88,-87.85
McDonald's,-121.444576,38.534791,"5425 Fruitridge Rd, Sacramento, CA 95820",38.534791,-121.444576
McDonald's,-121.442884,38.64327,"4242 Norwood Ave, Sacramento, CA 95838",38.64327,-121.442884
McDonald's,-121.405309,38.591398,"2320 Fair Oaks Blvd, Sacramento, CA 95825",38.591398,-121.405309
McDonald's,-121.513631,38.639454,"3773 Northgate Blvd, Sacramento, CA 95834",38.639454,-121.513631
McDonald's,-121.440297,38.568613,"5525 Folsom Blvd, Sacramento, CA 95819",38.568613,-121.440297
McDonald's,-121.491374,38.579912,"200 Richards Blvd, Sacramento, CA 95814",38.579912,-121.491374
McDonald's,-121.330093,38.629982,"7329 Fair Oaks Blvd, Carmichael, CA 95608",38.629982,-121.330093
McDonald's,-106.547949,35.321995,"East New Mexico 44, Bernalillo, NM 87004",35.321995,-106.547949
McDonald's,-106.648646,35.084021,"Albuquerque, NM 87101",35.084021,-106.648646
McDonald's,-78.893297,35.362685,"Lillington, NC 27546",35.362685,-78.893297
McDonald's,-79.237669,35.555091,"Steele St, Sanford, NC 27237",35.555091,-79.237669
McDonald's,-78.596877,35.67006,"110 Carillon Dr, Garner, NC 27529",35.67006,-78.596877
McDonald's,-78.806054,35.795497,"4801 NW Cary Pkwy, Cary, NC 27513",35.795497,-78.806054
McDonald's,-84.209002,39.758562,"410 S Main St, Dayton, OH 45402",39.758562,-84.209002
McDonald's,-84.221615,39.673947,"741 E Dixie Dr, Dayton, OH 45449",39.673947,-84.221615
McDonald's,-84.0705,39.528606,"35 S Main St, Waynesville, OH 45068",39.528606,-84.0705
McDonald's,-84.221879,39.558123,"775 W Central Ave, Springboro, OH 45066",39.558123,-84.221879
McDonald's,-84.738906,39.500671,"401 E High St, Oxford, OH 45056",39.500671,-84.738906
McDonald's,-84.609018,39.402857,"1230 Eaton Ave, Hamilton, OH 45013",39.402857,-84.609018
McDonald's,-84.508048,39.400053,"324 N 2nd St, Hamilton, OH 45011",39.400053,-84.508048
McDonald's,-84.653126,38.989037,"8530 Us Highway 42, Florence, KY 41042",38.989037,-84.653126
McDonald's,0.0,0.0,"4999 Houston Rd, Florence, KY 41042",0.0,0.0
McDonald's,-84.275902,39.068909,"870 Eastgate South Dr, Cincinnati, OH 45245",39.068909,-84.275902
McDonald's,-84.540967,38.99991,"Erlanger, KY 41017",38.99991,-84.540967
McDonald's,-84.291501,39.196775,"2930 W Us Highway 22landen, Loveland, OH 45111",39.196775,-84.291501
McDonald's,-84.469665,39.287696,"600 Kemper Commons Cir, Springdale, OH 45246",39.287696,-84.469665
McDonald's,-84.376037,39.288822,"I 275, Sharonville, OH 45241",39.288822,-84.376037
McDonald's,-87.65,41.74,"7601 S Vincennes Ave, Chicago, IL 60620",41.74,-87.65
McDonald's,-84.578744,39.207151,"8339 Colerain Ave, Cincinnati, OH 45239",39.207151,-84.578744
McDonald's,-84.393711,39.206721,"4140 Hunt Rd, Cincinnati, OH 45236",39.206721,-84.393711
McDonald's,0.0,0.0,"413 Martin Luther King Dr E, Cincinnati, OH 45229",0.0,0.0
McDonald's,-84.452411,39.161402,"4524 Montgomery Rd, Norwood, OH 45212",39.161402,-84.452411
McDonald's,-87.75,41.95,"3560 N Cicero Ave, Chicago, IL 60641",41.95,-87.75
McDonald's,-81.954028,40.793179,"State Route 30, Wooster, OH 44691",40.793179,-81.954028
McDonald's,-81.947634,40.801505,"E Bowman St, Wooster, OH 44691",40.801505,-81.947634
McDonald's,-82.606472,41.306211,"11015 Us Highway 250 N, Milan, OH 44846",41.306211,-82.606472
McDonald's,-80.843213,41.237969,"2481 W Market St, Warren, OH 44485",41.237969,-80.843213
McDonald's,-81.385961,40.839029,"3934 Everhard Rd Nw, Canton, OH 44709",40.839029,-81.385961
McDonald's,-81.238445,41.158515,"6134 St, RT 14, Ravenna, OH 44266",41.158515,-81.238445
McDonald's,-81.20594,41.572961,"430 Water St, Chardon, OH 44024",41.572961,-81.20594
McDonald's,-81.334616,41.688515,"5745 Heisley Rd, Mentor, OH 44060",41.688515,-81.334616
McDonald's,-81.348008,41.249401,"9439 State Route 14, Streetsboro, OH 44241",41.249401,-81.348008
McDonald's,-81.622978,41.134339,"3265 W Market St, Fairlawn, OH 44333",41.134339,-81.622978
McDonald's,-81.437122,41.174948,"712 E Steels Corners Rd, Stow, OH 44224",41.174948,-81.437122
McDonald's,-81.830914,41.247525,"1625 Pearl Rd, Brunswick, OH 44212",41.247525,-81.830914
McDonald's,-81.735134,41.314797,"5304 Royalton Rd, North Royalton, OH 44133",41.314797,-81.735134
McDonald's,-81.524451,41.389013,"25640 Miles Rd, Bedford, OH 44146",41.389013,-81.524451
McDonald's,-87.6,41.74,"29 E 87th St, Chicago, IL 60619",41.74,-87.6
McDonald's,-81.560256,41.410885,"5114 Northfield Rd, Maple Heights, OH 44137",41.410885,-81.560256
McDonald's,-81.781467,41.377971,"6421 Pearl Rd, Cleveland, OH 44130",41.377971,-81.781467
McDonald's,-81.702815,41.447466,"3211 Clark Ave, Cleveland, OH 44109",41.447466,-81.702815
McDonald's,-81.690755,41.504747,"8950 Euclib Ave, Cleveland, OH 44101",41.504747,-81.690755
McDonald's,-81.399732,41.62615,"36212 Euclid Avenue, Willoughby, OH 44094",41.62615,-81.399732
McDonald's,-81.736352,41.437251,"4830 Ridge Rd, Cleveland, OH 44144",41.437251,-81.736352
McDonald's,-83.756488,36.61096,"Cumberland Ave, Middlesboro, KY 40965",36.61096,-83.756488
McDonald's,-83.472789,35.408031,"180 Veterans Blvd, Bryson City, NC 28713",35.408031,-83.472789
McDonald's,-83.649176,36.418745,"New Tazewell, TN 37825",36.418745,-83.649176
McDonald's,-83.284304,36.08783,"3624 Roy Messer Hwy, White Pine, TN 37890",36.08783,-83.284304
McDonald's,-84.255264,36.01478,"841 Oak Ridge Tpke, Oak Ridge, TN 37830",36.01478,-84.255264
McDonald's,-83.981759,35.791903,"1030 Hunters Xing, Alcoa, TN 37701",35.791903,-83.981759
McDonald's,-83.92068,35.960584,"Millertown Walmart Inside, Knoxville, TN 37901",35.960584,-83.92068
McDonald's,-85.981903,36.182015,"483 Gordonsville Hwy, Gordonsville, TN 38563",36.182015,-85.981903
McDonald's,-87.036922,35.619781,"110 Bear Creek Pike, Columbia, TN 38401",35.619781,-87.036922
McDonald's,-86.454895,36.385379,"Po Box 350, Gallatin, TN 37066",36.385379,-86.454895
McDonald's,-86.775335,36.003695,"410 Old Hickory Blvd, Brentwood, TN 37027",36.003695,-86.775335
McDonald's,-86.663893,36.165149,"154 McGavock Pike, Nashville, TN 37214",36.165149,-86.663893
McDonald's,-97.963514,29.56341,"14830 Lytle-Somerset Rd, Hondo, TX 78861",29.56341,-97.963514
McDonald's,-87.76,42.0,"5600 N Menard Ave, Chicago, IL 60646",42.0,-87.76
McDonald's,-98.709193,29.816972,"8036 Fm 2673, Canyon Lake, TX 78133",29.816972,-98.709193
McDonald's,-87.87,41.96,"9449 Irving Park Rd, Schiller Park, IL 60176",41.96,-87.87
McDonald's,-98.410757,29.578656,"11482 Perrin Beitel Rd, San Antonio, TX 78217",29.578656,-98.410757
McDonald's,-98.523505,29.423659,"4241 Woodcock Dr, San Antonio, TX 78228",29.423659,-98.523505
McDonald's,-98.522743,29.512693,"9800 Airport Blvd, San Antonio, TX 78216",29.512693,-98.522743
McDonald's,-98.49262,29.534284,"7300 Blanco Rd Ste 302, San Antonio, TX 78216",29.534284,-98.49262
McDonald's,-98.456737,29.488785,"721 San Pedro Ave, San Antonio, TX 78212",29.488785,-98.456737
McDonald's,-98.470464,29.58508,"9151 Fm 78, Converse, TX 78109",29.58508,-98.470464
McDonald's,-81.884646,29.63801,"330 Valley Hi Dr, San Antonio, TX 78227",29.63801,-81.884646
McDonald's,-82.096279,29.943758,"State Highway 16, Saint Augustine, FL 32080",29.943758,-82.096279
McDonald's,-81.825339,30.558729,"1310 Uss Daniel Boone Ave, Kings Bay, GA 31547",30.558729,-81.825339
McDonald's,-81.596584,30.094173,"542361 Us Highway 1, Callahan, FL 32011",30.094173,-81.596584
McDonald's,-81.787852,30.143043,"1625 County Road 210 W, Jacksonville, FL 32259",30.143043,-81.787852
McDonald's,-81.495763,30.349197,"11230 Saint Augustine Rd, Jacksonville, FL 32257",30.349197,-81.495763
McDonald's,-81.587943,30.36525,"7245 Merrill Rd, Jacksonville, FL 32277",30.36525,-81.587943
McDonald's,-81.584655,30.332745,"5000 Highway Ave, Jacksonville, FL 32254",30.332745,-81.584655
McDonald's,-81.754763,28.001886,"3828 Bee Ridge Rd, Sarasota, FL 34233",28.001886,-81.754763
McDonald's,-81.776808,27.75154,"787 S Washington Blvd, Sarasota, FL 34236",27.75154,-81.776808
McDonald's,-87.65,41.67,"12700 S Ashland Ave, Calumet Park, IL 60827",41.67,-87.65
McDonald's,-82.522064,27.4031,"3511 Fruitville Rd, Sarasota, FL 34237",27.4031,-82.522064
McDonald's,-87.96,41.84,"2111 Midwest Rd, Oak Brook, IL 60523",41.84,-87.96
McDonald's,-87.94,41.89,"920 N York St, Elmhurst, IL 60126",41.89,-87.94
McDonald's,-82.518568,27.446237,"8164 N Tamiami Trl, Sarasota, FL 34243",27.446237,-82.518568
McDonald's,-81.953831,28.137163,"2835 S Florida Ave, Lakeland, FL 33803",28.137163,-81.953831
McDonald's,-82.718034,27.75781,"650 150th Ave, Madeira Beach, FL 33708",27.75781,-82.718034
McDonald's,-82.128945,28.017052,"2909 Us Highway 19, Tarpon Springs, FL 34691",28.017052,-82.128945
McDonald's,-82.760148,27.852181,"Desoto Sq Mall, Bradenton, FL 34201",27.852181,-82.760148
McDonald's,-82.63932,27.77132,"1250 Bay Ave, Clearwater, FL 33756",27.77132,-82.63932
McDonald's,-87.62,41.89,"2001 W Chgo Ave, Chicago, IL 60601",41.89,-87.62
McDonald's,-87.62,41.89,"Ohare International Airport, Chicago, IL 60601",41.89,-87.62
McDonald's,-82.769856,28.025668,"539 N Missouri Ave, Clearwater, FL 33755",28.025668,-82.769856
McDonald's,-82.745093,27.973762,"27643 State Road 54, Wesley Chapel, FL 33543",27.973762,-82.745093
McDonald's,-82.769856,28.025668,"7695 Ulmerton Rd, Largo, FL 33771",28.025668,-82.769856
McDonald's,-82.745881,28.002064,"5170 Park Blvd, Pinellas Park, FL 33781",28.002064,-82.745881
McDonald's,-82.683677,27.891461,"7001 19th Way N, Saint Petersburg, FL 33702",27.891461,-82.683677
McDonald's,-111.748894,33.3638,"Sun City West, AZ 85375",33.3638,-111.748894
McDonald's,-111.759847,33.317562,"16252 N 138th Ln, Surprise, AZ 85374",33.317562,-111.759847
McDonald's,-87.95,41.95,"1100 W Irving Park Rd, Bensenville, IL 60106",41.95,-87.95
McDonald's,-111.748894,33.3638,"6535 W Happy Valley Rd, Peoria, AZ 85310",33.3638,-111.748894
McDonald's,-111.830879,33.315759,"7017 N Litchfield Rd, Luke Afb, AZ 85307",33.315759,-111.830879
McDonald's,-111.841212,33.3879,"3111 W Chandler Blvd, Chandler, AZ 85226",33.3879,-111.841212
McDonald's,-111.923614,33.3051,"1460 W Southern Ave, Mesa, AZ 85202",33.3051,-111.923614
McDonald's,-112.257069,33.531768,"5060 W Cactus Rd, Phoenix, AZ 85304",33.531768,-112.257069
McDonald's,-111.932191,33.428101,"Po Box 4910, Scottsdale, AZ 85261",33.428101,-111.932191
McDonald's,-112.122879,33.513019,"2321 W Bethany Home Rd, Phoenix, AZ 85015",33.513019,-112.122879
McDonald's,-112.090337,33.450905,"6005 S Central Ave, Phoenix, AZ 85042",33.450905,-112.090337
McDonald's,-88.01,41.76,"809 Plainfield Rd, Downers Grove, IL 60516",41.76,-88.01
McDonald's,-112.030193,33.702534,"1733 W van Buren St, Phoenix, AZ 85007",33.702534,-112.030193
McDonald's,-112.22067,33.528107,"24 St & Osborn, Phoenix, AZ 85001",33.528107,-112.22067
McDonald's,-112.176934,33.62284,"3848 W Pinnacle Peak Rd, Phoenix, AZ 85310",33.62284,-112.176934
McDonald's,-93.858573,45.17614,"I-94, Monticello, MN 55362",45.17614,-93.858573
McDonald's,-92.985798,45.269846,"141 Bridge Ave W, Delano, MN 55328",45.269846,-92.985798
McDonald's,-93.49725,44.776722,"13020 Riverdale Dr NW, Minneapolis, MN 55448",44.776722,-93.49725
McDonald's,-93.252029,45.158779,"3231 Northdale Blvd NW, Coon Rapids, MN 55448",45.158779,-93.252029
McDonald's,-93.273599,44.76771,"2410 W Industrial Blvd, Long Lake, MN 55356",44.76771,-93.273599
McDonald's,-93.49725,44.776722,"14200 Grand Ave, Burnsville, MN 55337",44.776722,-93.49725
McDonald's,-93.580856,44.900372,"9530 Black Oaks Ln N, Maple Grove, MN 55311",44.900372,-93.580856
McDonald's,-87.79,41.58,"15920 Harlem Ave, Tinley Park, IL 60477",41.58,-87.79
McDonald's,-93.011181,45.080369,"8101 Old Carriage Ct, Shakopee, MN 55379",45.080369,-93.011181
McDonald's,-93.208004,45.171149,"822 Highway 55, Hamel, MN 55340",45.171149,-93.208004
McDonald's,-93.301244,45.187199,"1759 Weir Dr, Saint Paul, MN 55125",45.187199,-93.301244
McDonald's,-88.0,42.01,"2010 E Higgins Rd, Elk Grove Village, IL 60007",42.01,-88.0
McDonald's,-93.038072,44.84173,"2730 Minnehaha Ave E, Maplewood, MN 55119",44.84173,-93.038072
McDonald's,-93.003154,44.951936,"2935 Southlawn Dr, Maplewood, MN 55109",44.951936,-93.003154
McDonald's,-93.432813,44.86231,"7088 E Fish Lake Rd, Osseo, MN 55311",44.86231,-93.432813
McDonald's,-93.526839,44.964949,"9000 85th Ave N, Brooklyn Park, MN 55445",44.964949,-93.526839
McDonald's,-88.07,41.9,"3S010 Route 53, Glen Ellyn, IL 60137",41.9,-88.07
McDonald's,-87.95,41.61,"14298 S Bell Rd, Homer Glen, IL 60491",41.61,-87.95
McDonald's,-93.136637,44.804584,"850 County Road E E, Vadnais Heights, MN 55127",44.804584,-93.136637
McDonald's,-93.377549,45.110569,"1351 Town Centre Dr, Saint Paul, MN 55123",45.110569,-93.377549
McDonald's,-93.378233,45.061039,"1995 Silver Bell Rd, Saint Paul, MN 55122",45.061039,-93.378233
McDonald's,-93.101587,44.90203,"7685 W Broadway Ave, Minneapolis, MN 55428",44.90203,-93.101587
McDonald's,-93.091828,44.951331,"1480 85th Ave N, Minneapolis, MN 55444",44.951331,-93.091828
McDonald's,-93.433603,44.957503,"2020 Dodd Rd, Saint Paul, MN 55120",44.957503,-93.433603
McDonald's,-93.091828,44.951331,"Saint Paul, MN 55101",44.951331,-93.091828
McDonald's,-93.091828,44.951331,"4637 Shady Oak Rd S, Hopkins, MN 55343",44.951331,-93.091828
McDonald's,-93.38215,45.007216,"1313 County Road E W, Saint Paul, MN 55112",45.007216,-93.38215
McDonald's,-93.171974,44.91298,"1168 Silver Lake Rd NW, New Brighton, MN 55112",44.91298,-93.171974
McDonald's,-93.161754,44.9539,"6320 W Lake St, Minneapolis, MN 55416",44.9539,-93.161754
McDonald's,-93.302252,45.027585,"2075 Snelling Ave N, Saint Paul, MN 55113",45.027585,-93.302252
McDonald's,-93.197401,44.96532,"5200 Excelsior Blvd, Minneapolis, MN 55416",44.96532,-93.197401
McDonald's,-87.66,41.56,"17740 Halsted St, Homewood, IL 60430",41.56,-87.66
McDonald's,-93.29827,44.9986,"2213 University Ave W, Saint Paul, MN 55114",44.9986,-93.29827
McDonald's,-93.230213,44.978074,"2929 Hennepin Ave, Minneapolis, MN 55408",44.978074,-93.230213
McDonald's,-92.938051,44.830823,"Minneapolis, MN 55401",44.830823,-92.938051
McDonald's,-87.75,42.11,"858 Green Bay Rd, Winnetka, IL 60093",42.11,-87.75
McDonald's,-73.363339,42.193255,"7355 W Point Douglas Rd S, Cottage Grove, MN 55016",42.193255,-73.363339
McDonald's,-73.453889,41.392592,"26 Sutton Ave, Oxford, MA 01540",41.392592,-73.453889
McDonald's,-73.131906,41.197266,"Berkshire Shopping Ctr, Danbury, CT 06810",41.197266,-73.131906
McDonald's,-71.958331,42.13906,"5065 Main St, Trumbull, CT 06611",42.13906,-71.958331
McDonald's,-71.969764,42.134705,"2 Coogan Blvd, Mystic, CT 06355",42.134705,-71.969764
McDonald's,-73.101659,41.247825,"94 Char, Charlton, MA 01507",41.247825,-73.101659
McDonald's,-73.057314,41.225019,"411 Barnum Avenue Stratford Sq, Stratford, CT 06614",41.225019,-73.057314
McDonald's,-73.206135,41.334161,"561 Long Hill Rd, Groton, CT 06340",41.334161,-73.206135
McDonald's,-71.883205,41.844648,"178 Federal Rd, Brookfield, CT 06804",41.844648,-71.883205
McDonald's,-71.885004,41.804039,"406 Colman St, New London, CT 06320",41.804039,-71.885004
McDonald's,-73.089629,41.323445,"95 River Rd, Lisbon, CT 06351",41.323445,-73.089629
McDonald's,-73.089629,41.323445,"3 Chesterfield Rd, East Lyme, CT 06333",41.323445,-73.089629
McDonald's,-72.375724,41.28832,"Canaan, CT 06018",41.28832,-72.375724
McDonald's,-88.03,42.08,"2580 Golf Rd, Rolling Meadows, IL 60008",42.08,-88.03
McDonald's,-72.875951,41.277255,"538 Norwich New London Tpke, Montville, CT 06353",41.277255,-72.875951
McDonald's,-72.811269,41.2817,"687 Main St, East Haven, CT 06512",41.2817,-72.811269
McDonald's,-72.095329,41.548955,"108 W Main St, Clinton, CT 06413",41.548955,-72.095329
McDonald's,-72.901664,41.383965,"Connecticut Tpke, Madison, CT 06443",41.383965,-72.901664
McDonald's,-72.86102,41.387833,"1460 Memorial Dr, Chicopee, MA 01020",41.387833,-72.86102
McDonald's,-72.450279,42.12122,"50 Holyoke St, Holyoke, MA 01040",42.12122,-72.450279
McDonald's,-72.860661,41.380666,"7 Wellfleet Dr, Ludlow, MA 01095",41.380666,-72.860661
McDonald's,-73.119393,41.604893,"182 N Elm St, Westfield, MA 01085",41.604893,-73.119393
McDonald's,-72.562717,42.126282,"352 Riverdale St, West Springfield, MA 01089",42.126282,-72.562717
McDonald's,-73.013709,41.529805,"45 Thomaston Ave, Waterbury, CT 06702",41.529805,-73.013709
McDonald's,-72.623498,42.105568,"1464 Main St, Willimantic, CT 06226",42.105568,-72.623498
McDonald's,-72.983248,41.546158,"89 W Stafford Rd, Stafford Springs, CT 06076",41.546158,-72.983248
McDonald's,-73.034379,41.57411,"530 Reidville Dr, Waterbury, CT 06705",41.57411,-73.034379
McDonald's,-72.594139,41.999734,"1858 E Main St, Torrington, CT 06790",41.999734,-72.594139
McDonald's,-72.77157,42.053629,"34 Enfield St, Enfield, CT 06082",42.053629,-72.77157
McDonald's,-72.594139,41.999734,"Taylor Rd, Enfield, CT 06082",41.999734,-72.594139
McDonald's,-72.826369,41.51832,"585 Hazard Ave, Enfield, CT 06082",41.51832,-72.826369
McDonald's,-72.94619,41.674498,"80 N Main St Bldg MCD, Bristol, CT 06010",41.674498,-72.94619
McDonald's,-88.04,41.59,"1039 E 9th St, Lockport, IL 60441",41.59,-88.04
McDonald's,-72.649839,41.56266,"321 Main St, Bristol, CT 06010",41.56266,-72.649839
McDonald's,-72.829034,41.955158,"74 Reservoir Rd, Vernon, CT 06066",41.955158,-72.829034
McDonald's,-72.94619,41.674498,"9 Bank St, Granby, CT 06035",41.674498,-72.94619
McDonald's,-87.61,41.51,"19767 S Halsted St, Chicago Heights, IL 60411",41.51,-87.61
McDonald's,-72.651639,41.59863,"Canton, CT 06019",41.59863,-72.651639
McDonald's,-72.651639,41.59863,"195 Ella T Grasso Tpke, Windsor Locks, CT 06096",41.59863,-72.651639
McDonald's,-72.448674,41.867455,"125 Berlin Rd, Cromwell, CT 06416",41.867455,-72.448674
McDonald's,-72.887906,41.758893,"89 Talcottville Rd, Vernon Rockville, CT 06066",41.758893,-72.887906
McDonald's,-72.868253,41.671118,"1799 Farmington Ave, Unionville, CT 06085",41.671118,-72.868253
McDonald's,-72.556187,41.834203,"22 Albany Tpke, Simsbury, CT 06092",41.834203,-72.556187
McDonald's,-72.556187,41.834203,"Route 5 John Fitch Blvd, South Windsor, CT 06074",41.834203,-72.556187
McDonald's,-72.644149,41.85076,"273 Cottage Grove Rd, Bloomfield, CT 06002",41.85076,-72.644149
McDonald's,-72.694296,41.763209,"76 Brainard Rd, Hartford, CT 06114",41.763209,-72.694296
McDonald's,-72.694296,41.763209,"1303 Albany Ave, Hartford, CT 06112",41.763209,-72.694296
McDonald's,-72.674069,41.763325,"172 Washington St, Hartford, CT 06106",41.763325,-72.674069
McDonald's,-73.073981,41.394897,"150 Gold Star Hwy, Groton, CT 06340",41.394897,-73.073981
McDonald's,-72.594139,41.999734,"97 Elm St, Enfield, CT 06082",41.999734,-72.594139
McDonald's,-73.072853,41.920898,"44 S Main St, Winsted, CT 06098",41.920898,-73.072853
McDonald's,-94.301052,39.308475,"119 Crown Hill Rd, Excelsior Springs, MO 64024",39.308475,-94.301052
McDonald's,-94.497403,38.790037,"71 Highway And 58 Hwy, Belton, MO 64012",38.790037,-94.497403
McDonald's,-88.24,41.75,"188 Fox Valley Ctr, Aurora, IL 60504",41.75,-88.24
McDonald's,-94.259793,39.020209,"814 State Highway 7, Blue Springs, MO 64014",39.020209,-94.259793
McDonald's,-94.77217,38.961889,"15920 W 87th Street Pkwy, Shawnee Mission, KS 66219",38.961889,-94.77217
McDonald's,-94.682257,38.957399,"Santa Fe Dr, Overland Park, KS 66212",38.957399,-94.682257
McDonald's,-94.71507,38.96005,"11005 W 75th St, Overland Park, KS 66214",38.96005,-94.71507
McDonald's,-94.539371,38.929916,"5620 E Bannister Rd # E, Kansas City, MO 64137",38.929916,-94.539371
McDonald's,-94.523865,39.206582,"290 E Us Highway 69, Kansas City, MO 64119",39.206582,-94.523865
McDonald's,-94.666469,39.023777,"6767 Johnson Dr, Mission, KS 66202",39.023777,-94.666469
McDonald's,-94.59506,39.037124,"500 Nichols Rd, Kansas City, MO 64112",39.037124,-94.59506
McDonald's,-123.014817,44.96524,"Salem, OR 97301",44.96524,-123.014817
McDonald's,-87.81,42.18,"2748 Skokie Valley Rd, Highland Park, IL 60035",42.18,-87.81
McDonald's,-122.852504,45.145552,"3002 Stacey Allison Way, Woodburn, OR 97071",45.145552,-122.852504
McDonald's,-122.955346,45.492067,"568 SE 10th Ave, Hillsboro, OR 97123",45.492067,-122.955346
McDonald's,-122.852325,45.355509,"21335 N Sherwood Blvd, Sherwood, OR 97140",45.355509,-122.852325
McDonald's,-122.392076,45.529067,"1002 Nw Frontage Rd, Troutdale, OR 97060",45.529067,-122.392076
McDonald's,-122.572186,45.341733,"2010 Clackamette Dr, Oregon City, OR 97045",45.341733,-122.572186
McDonald's,-122.86388,45.51928,"19525 SW Tualatin Valley Hwy, Aloha, OR 97006",45.51928,-122.86388
McDonald's,-122.539659,45.418222,"14600 SE Sunnyside Rd, Happy Valley, OR 97015",45.418222,-122.539659
McDonald's,-122.780914,45.438848,"12388 SW Scholls Ferry Rd, Tigard, OR 97223",45.438848,-122.780914
McDonald's,-122.780914,45.438848,"9483 SW Washington Square Rd, Portland, OR 97223",45.438848,-122.780914
McDonald's,-122.576451,45.674106,"8700 NE Vancouver Mall Dr, Vancouver, WA 98662",45.674106,-122.576451
McDonald's,-122.578434,45.619305,"1525 NE 103rd Ct, Portland, OR 98664",45.619305,-122.578434
McDonald's,-88.24,41.75,"2595 Ogden Ave, Aurora, IL 60504",41.75,-88.24
McDonald's,-87.86,42.24,"884 S Waukegan Rd, Lake Forest, IL 60045",42.24,-87.86
McDonald's,-88.12,41.54,"1704 Plainfield Rd, Crest Hill, IL 60435",41.54,-88.12
McDonald's,-122.616019,45.442725,"8151 SE Lamphier St, Portland, OR 97222",45.442725,-122.616019
McDonald's,-122.616019,45.442725,"10970 SE Oak St, Milwaukie, OR 97222",45.442725,-122.616019
McDonald's,-122.64785,45.366331,"2100 8th Ct, West Linn, OR 97068",45.366331,-122.64785
McDonald's,-122.612606,45.407515,"15114 SE McLoughlin Blvd, Milwaukie, OR 97267",45.407515,-122.612606
McDonald's,0.0,0.0,"300 W Hillsboro Blvd, Deerfield Beach, FL 33441",0.0,0.0
McDonald's,-88.3,41.76,"1185 N Farnsworth Ave, Aurora, IL 60505",41.76,-88.3
McDonald's,-80.272809,26.30724,"5741 Coral Ridge Dr, Coral Springs, FL 33076",26.30724,-80.272809
McDonald's,-80.256431,26.2724,"11655 W Sample Rd, Coral Springs, FL 33065",26.2724,-80.256431
McDonald's,-88.12,41.54,"1515 W Jefferson St, Joliet, IL 60435",41.54,-88.12
McDonald's,-80.375734,26.111264,"1020 Weston Rd, Weston, FL 33326",26.111264,-80.375734
McDonald's,-80.367599,26.05845,"4492 Weston Rd, Davie, FL 33331",26.05845,-80.367599
McDonald's,-80.223664,26.06866,"4101 SW 64th Ave, Davie, FL 33314",26.06866,-80.223664
McDonald's,-88.3,41.76,"711 E New York St, Aurora, IL 60505",41.76,-88.3
McDonald's,-87.97,42.23,"909 Hawtllorne Shopping Ctr, Vernon Hills, IL 60061",42.23,-87.97
McDonald's,-87.86,42.24,"695 N Bradley Rd, Mettawa, IL 60045",42.24,-87.86
McDonald's,0.0,0.0,"10260 Griffin Rd, Cooper City, FL 33328",0.0,0.0
McDonald's,0.0,0.0,"10855 Caribbean Blvd, Miami, FL 33189",0.0,0.0
McDonald's,-88.26,42.04,"816 Saint Charles St, Elgin, IL 60120",42.04,-88.26
McDonald's,0.0,0.0,"11575 Quail Roost Dr, Miami, FL 33157",0.0,0.0
McDonald's,0.0,0.0,"20315 Old Cutler Rd, Miami, FL 33189",0.0,0.0
McDonald's,-88.36,41.77,"350 W Galena Blvd, Aurora, IL 60506",41.77,-88.36
McDonald's,-80.320094,25.941662,"17850 NW 57th Ave, Hialeah, FL 33015",25.941662,-80.320094
McDonald's,-87.32,41.47,"I-65, Merrillville, IN 46410",41.47,-87.32
McDonald's,-80.320094,25.941662,"5851 NW 177th St, Hialeah, FL 33015",25.941662,-80.320094
McDonald's,-87.62,41.35,"901 Dixie Hwy, Beecher, IL 60401",41.35,-87.62
McDonald's,0.0,0.0,"2201 NE 163rd St, Miami, FL 33160",0.0,0.0
McDonald's,-88.34,41.69,"2890 Us Highway 34, Oswego, IL 60543",41.69,-88.34
McDonald's,0.0,0.0,"12647 S Dixie Hwy, Miami, FL 33156",0.0,0.0
McDonald's,0.0,0.0,"12185 Sw 26th St, Miami, FL 33175",0.0,0.0
McDonald's,-88.3,41.92,"1915 W Main St, Saint Charles, IL 60174",41.92,-88.3
McDonald's,-87.26,41.53,"1415 E 37th Ave, Hobart, IN 46342",41.53,-87.26
McDonald's,-88.18,41.54,"4280 W Jefferson St, Joliet, IL 60431",41.54,-88.18
McDonald's,0.0,0.0,"15096 NW 7th Ave, Miami, FL 33168",0.0,0.0
McDonald's,-80.332278,25.894685,"5995 W 24th Ave, Hialeah, FL 33016",25.894685,-80.332278
McDonald's,-88.18,41.54,"1421 Riverboat Center Dr, Joliet, IL 60431",41.54,-88.18
McDonald's,0.0,0.0,"7100 Collins Ave, Miami Beach, FL 33141",0.0,0.0
McDonald's,0.0,0.0,"10530 W Flagler St, Miami, FL 33174",0.0,0.0
McDonald's,-80.300699,25.86541,"4185 W 16th Ave, Hialeah, FL 33012",25.86541,-80.300699
McDonald's,-80.300699,25.86541,"3350 W 18th Ave, Hialeah, FL 33012",25.86541,-80.300699
McDonald's,-88.36,41.77,"2011 W Galena Blvd, Aurora, IL 60506",41.77,-88.36
McDonald's,0.0,0.0,"7995 W Flagler St, Miami, FL 33144",0.0,0.0
McDonald's,-80.300699,25.86541,"330 W 29th St, Hialeah, FL 33012",25.86541,-80.300699
McDonald's,-80.233285,25.753621,"3280 Coral Way, Coral Gables, FL 33145",25.753621,-80.233285
McDonald's,-87.86,42.31,"200 Building, Great Lakes, IL 60088",42.31,-87.86
McDonald's,0.0,0.0,"3747 NW 7th St, Miami, FL 33126",0.0,0.0
McDonald's,-88.29,42.1,"386 S 8th St, West Dundee, IL 60118",42.1,-88.29
McDonald's,0.0,0.0,"2940 SW 8th St, Miami, FL 33135",0.0,0.0
McDonald's,-70.930864,41.637655,"Hathaway Rd, New Bedford, MA 02740",41.637655,-70.930864
McDonald's,-88.26,42.14,"Route 25, Carpentersville, IL 60110",42.14,-88.26
McDonald's,-70.531959,41.79389,"1 Meetinghouse Ln, Sagamore Beach, MA 02562",41.79389,-70.531959
McDonald's,-71.969764,42.134705,"94 Char, Charlton, MA 01507",42.134705,-71.969764
McDonald's,-88.44,41.64,"2007 Bridge St, Yorkville, IL 60560",41.64,-88.44
McDonald's,-71.507499,42.994395,"907 2nd St, Manchester, NH 03102",42.994395,-71.507499
McDonald's,-71.864679,42.1176,"26 Sutton Ave, Oxford, MA 01540",42.1176,-71.864679
McDonald's,-71.869495,42.180468,"Routes 12, Auburn, MA 01501",42.180468,-71.869495
McDonald's,-71.326734,42.88059,"Route 102, Derry, NH 03038",42.88059,-71.326734
McDonald's,-71.785574,42.30964,"8 Malden St Apt 14, Worcester, MA 01606",42.30964,-71.785574
McDonald's,-71.325196,41.829792,"Po Box 220, Seekonk, MA 02771",41.829792,-71.325196
McDonald's,-71.785574,42.30964,"1282 W Boylston St, Worcester, MA 01606",42.30964,-71.785574
McDonald's,-87.8,41.33,"701 Oriole Dr, Peotone, IL 60468",41.33,-87.8
McDonald's,-71.759364,42.52638,"100 Commercial Rd Unit 100, Leominster, MA 01453",42.52638,-71.759364
McDonald's,-71.772199,42.2643,"982 Grafton St, Worcester, MA 01604",42.2643,-71.772199
McDonald's,-87.86,42.36,"1010 Waukegan Rd, Waukegan, IL 60085",42.36,-87.86
McDonald's,-71.444316,41.931973,"622 George Washington Hwy, Lincoln, RI 02865",41.931973,-71.444316
McDonald's,-71.439029,42.76434,"75 Derry Ln, Hudson, NH 03051",42.76434,-71.439029
McDonald's,-70.906864,41.89442,"4 E Clark St, Middleboro, MA 02346",41.89442,-70.906864
McDonald's,-71.439029,42.76434,"Derry Rd, Hudson, NH 03051",42.76434,-71.439029
McDonald's,-71.088779,41.900915,"282 Winthrop St, Taunton, MA 02780",41.900915,-71.088779
McDonald's,-71.329548,41.973584,"226 E Washington St, North Attleboro, MA 02760",41.973584,-71.329548
McDonald's,-71.613866,42.268807,"11 Massachusetts Tpke, Westborough, MA 01581",42.268807,-71.613866
McDonald's,-71.516544,42.142995,"Milford, MA 01757",42.142995,-71.516544
McDonald's,-88.28,41.47,"100 Ridge Rd, Minooka, IL 60447",41.47,-88.28
McDonald's,-70.66811,42.614353,"50 Maplewood Ave, Gloucester, MA 01930",42.614353,-70.66811
McDonald's,-71.329969,42.658265,"378 Broadway St, Lowell, MA 01854",42.658265,-71.329969
McDonald's,-88.44,41.64,"3 W Veterans Pkwy, Yorkville, IL 60560",41.64,-88.44
McDonald's,-71.16649,42.687021,"599 Andover St, Lawrence, MA 01843",42.687021,-71.16649
McDonald's,-71.465799,42.261303,"Po Box Box, Ashland, MA 01721",42.261303,-71.465799
McDonald's,-87.94,42.37,"Delany Rd, Gurnee, IL 60031",42.37,-87.94
McDonald's,-71.017224,42.082555,"123 Market St, Brockton, MA 02301",42.082555,-71.017224
McDonald's,-71.088839,42.074712,"50 Oliver St, North Easton, MA 02356",42.074712,-71.088839
McDonald's,-71.409633,42.384211,"281 Willis Rd, Sudbury, MA 01776",42.384211,-71.409633
McDonald's,-71.017244,42.08317,"334 N Pearl St, Brockton, MA 02301",42.08317,-71.017244
McDonald's,-70.928509,42.52636,"Northshore Shopping Ctr, Peabody, MA 01960",42.52636,-70.928509
McDonald's,-70.943775,42.243361,"789 Bridge St, Weymouth, MA 02191",42.243361,-70.943775
McDonald's,-70.957994,42.484995,"60 Boston St, Lynn, MA 01904",42.484995,-70.957994
McDonald's,-87.84,41.25,"103 Southcreek Dr, Manteno, IL 60950",41.25,-87.84
McDonald's,-88.1,42.36,"774 E Rollins Rd, Round Lake Beach, IL 60073",42.36,-88.1
McDonald's,-71.221109,42.3177,"111 Needham St, Newton Upper Falls, MA 02464",42.3177,-71.221109
McDonald's,-71.108724,42.41985,"3850 Mystic Valley Pkwy, Medford, MA 02155",42.41985,-71.108724
McDonald's,-71.084184,42.32874,"3064 Washington St, Roxbury, MA 02119",42.32874,-71.084184
McDonald's,-87.93,42.43,"39105 N Us Highway 41, Wadsworth, IL 60083",42.43,-87.93
McDonald's,-71.106019,42.36679,"264 Monsignor Obrien Hwy, Cambridge, MA 02141",42.36679,-71.106019
McDonald's,0.0,0.0,"1 Union Park, Boston, MA 02118",0.0,0.0
McDonald's,-71.056699,42.358635,"605 Washington St, Boston, MA 02111",42.358635,-71.056699
McDonald's,-88.13,41.32,"1055 S Water St, Wilmington, IL 60481",41.32,-88.13
McDonald's,-71.134416,42.364112,"Boston, MA 02110",42.364112,-71.134416
McDonald's,-71.210473,42.784826,"54 Range Rd, Salem, NH 03079",42.784826,-71.210473
McDonald's,-84.548552,33.928803,"645 Cobb Pkwy S, Marietta, GA 30060",33.928803,-84.548552
McDonald's,-84.289712,33.888099,"3396 Chamblee Tucker Rd, Atlanta, GA 30341",33.888099,-84.289712
McDonald's,-86.88,41.71,"823 Franklin St, Michigan City, IN 46360",41.71,-86.88
McDonald's,-84.318974,33.942936,"4701 Ashford Dunwoody Rd, Dunwoody, GA 30338",33.942936,-84.318974
McDonald's,-84.289712,33.888099,"5493 Peachtree Industrial Blvd, Atlanta, GA 30341",33.888099,-84.289712
McDonald's,-84.417363,34.46398,"53 Jasper Hts, Jasper, GA 30143",34.46398,-84.417363
McDonald's,-85.078284,33.580894,"Carrollton, GA 30112",33.580894,-85.078284
McDonald's,-84.757165,34.12862,"Po Box, Cartersville, GA 30120",34.12862,-84.757165
McDonald's,-84.020437,33.998108,"1050 Old Peachtree Rd Ne, Lawrenceville, GA 30043",33.998108,-84.020437
McDonald's,-84.292078,34.11042,"5750 Atlanta Hwy, Alpharetta, GA 30004",34.11042,-84.292078
McDonald's,-84.292078,34.11042,"2350 Abernathy Rd, Alpharetta, GA 30004",34.11042,-84.292078
McDonald's,-84.139909,34.020438,"2101 Duluth Highway 120, Duluth, GA 30097",34.020438,-84.139909
McDonald's,-84.038886,33.804313,"3460 Centerville Ln, Snellville, GA 30039",33.804313,-84.038886
McDonald's,-84.149218,33.976204,"3210 Buford Hwy, Duluth, GA 30096",33.976204,-84.149218
McDonald's,-84.64428,33.997918,"Cobb Pkwy NW, Kennesaw, GA 30152",33.997918,-84.64428
McDonald's,-88.22,41.27,"285 N Front St, Braidwood, IL 60408",41.27,-88.22
McDonald's,-84.469045,33.47314,"860 S Highway 85, Fayetteville, GA 30214",33.47314,-84.469045
McDonald's,-84.422586,34.063325,"Hwy 92, Roswell, GA 30075",34.063325,-84.422586
McDonald's,0.0,0.0,"2 S Broadway St, Coal City, IL 60416",0.0,0.0
McDonald's,-84.329513,33.585188,"6615 Jonesboro Rd, Morrow, GA 30260",33.585188,-84.329513
McDonald's,-87.88,41.17,"9 Briarcliff Prof Ctr Ste A, Bourbonnais, IL 60914",41.17,-87.88
McDonald's,-84.467313,34.000425,"1495 Roswell Rd, Marietta, GA 30062",34.000425,-84.467313
McDonald's,-88.42,41.39,"Rt 47, Morris, IL 60450",41.39,-88.42
McDonald's,-84.505893,33.616062,"5115 Old National Hwy, College Park, GA 30349",33.616062,-84.505893
McDonald's,0.0,0.0,"5901 Peachtree Dunwoody Rd Ne, Atlanta, GA 30328",0.0,0.0
McDonald's,-84.548552,33.928803,"1785 Cobb Pkwy S, Marietta, GA 30060",33.928803,-84.548552
McDonald's,0.0,0.0,"1000 Johnson Ferry Rd NE, Atlanta, GA 30342",0.0,0.0
McDonald's,-84.454622,33.676162,"1203 Virginia Ave, Atlanta, GA 30344",33.676162,-84.454622
McDonald's,-73.747805,40.729714,"8814 Springfield Blvd, Queens Village, NY 11427",40.729714,-73.747805
McDonald's,0.0,0.0,"1083 2 Avenue At East 57th St, New York, NY 10001",0.0,0.0
McDonald's,0.0,0.0,"317 Broadway At Thomas St, New York, NY 10001",0.0,0.0
McDonald's,-73.84269,40.660637,"15940 Crossbay Blvd, Howard Beach, NY 11414",40.660637,-73.84269
McDonald's,-84.505236,34.034994,"3010 Canton Rd, Marietta, GA 30066",34.034994,-84.505236
McDonald's,-84.389828,33.753987,"35 Forsyth St, Atlanta, GA 30303",33.753987,-84.389828
McDonald's,-84.5673,34.117758,"2105 Towne Lake Pkwy, Woodstock, GA 30189",34.117758,-84.5673
McDonald's,-84.329513,33.585188,"5192 Jonesboro Rd, Morrow, GA 30260",33.585188,-84.329513
McDonald's,0.0,0.0,"824 3 Avenue At East 50th St, New York, NY 10001",0.0,0.0
McDonald's,0.0,0.0,"966 3 Avenue At East 58th St, New York, NY 10001",0.0,0.0
McDonald's,0.0,0.0,"688 8th Ave At 43 St, New York, NY 10036",0.0,0.0
McDonald's,0.0,0.0,"223 Lilac Bud St, Las Vegas, NV 89074",0.0,0.0
McDonald's,-115.062581,36.060034,"2217 N Green Valley Pkwy, Henderson, NV 89014",36.060034,-115.062581
McDonald's,0.0,0.0,"2886 N Nellis Blvd, Las Vegas, NV 89115",0.0,0.0
McDonald's,-74.060294,40.92673,"846 N State Rt 17, Paramus, NJ 07652",40.92673,-74.060294
McDonald's,-115.996268,36.17573,"681 S. Hwy 160, Pahrump, NV 89048",36.17573,-115.996268
McDonald's,-122.639102,38.460446,"50 Mission Cir, Santa Rosa, CA 95409",38.460446,-122.639102
McDonald's,0.0,0.0,"5389 Prospect Rd, San Jose, CA 95129",0.0,0.0
McDonald's,-122.29699,38.334514,"3392 Solano Ave, Napa, CA 94558",38.334514,-122.29699
McDonald's,-122.075449,37.404659,"958 San Leandro Ave Ste 600 0, Mountain View, CA 94043",37.404659,-122.075449
McDonald's,-122.027,37.5364,"3000 Newpark Mall, Newark, CA 94560",37.5364,-122.027
McDonald's,0.0,0.0,"114 Delancey St, New York, NY 10002",0.0,0.0
McDonald's,-122.129065,37.450687,"1721 E Bayshore Rd, East Palo Alto, CA 94303",37.450687,-122.129065
McDonald's,-122.129065,37.450687,"2401 University Ave, East Palo Alto, CA 94303",37.450687,-122.129065
McDonald's,-121.957447,37.751859,"2527 Camino Ramon Ste 347, San Ramon, CA 94583",37.751859,-121.957447
McDonald's,0.0,0.0,"1287 Washington Ave, San Leandro, CA 94577",0.0,0.0
McDonald's,0.0,0.0,"404 E 14th St, New York, NY 10009",0.0,0.0
McDonald's,-122.470989,37.692185,"Junipero Serra Blvd, Daly City, CA 94015",37.692185,-122.470989
McDonald's,-117.326063,33.153468,"2525 el Camino Real Ste 100, Carlsbad, CA 92008",33.153468,-117.326063
McDonald's,0.0,0.0,"154 7th Ave At 19 St, New York, NY 10011",0.0,0.0
McDonald's,0.0,0.0,"11682 el Camino Real Ste 40, San Diego, CA 92130",0.0,0.0
McDonald's,-116.913442,32.778967,"2646 Jamacha Rd, el Cajon, CA 92019",32.778967,-116.913442
McDonald's,-117.199931,32.823865,"5065 Clairemont Dr, San Diego, CA 92117",32.823865,-117.199931
McDonald's,-117.054264,32.636734,"619 Broadway, Chula Vista, CA 91910",32.636734,-117.054264
McDonald's,0.0,0.0,"22 E 23rd St, New York, NY 10010",0.0,0.0
McDonald's,-117.054264,32.636734,"555 Broadway, Chula Vista, CA 91910",32.636734,-117.054264
McDonald's,0.0,0.0,"3835 N Harbor Dr # 40, San Diego, CA 92101",0.0,0.0
McDonald's,0.0,0.0,"Airport East Terminal, San Diego, CA 92101",0.0,0.0
McDonald's,0.0,0.0,"32d Street Naval Sta, San Diego, CA 92101",0.0,0.0
McDonald's,0.0,0.0,"735 9 Avenue At West 50th St, New York, NY 10001",0.0,0.0
McDonald's,0.0,0.0,"556 7 Avenue At West 40th St, New York, NY 10001",0.0,0.0
McDonald's,0.0,0.0,"102 1st Ave E 6th St, New York, NY 10001",0.0,0.0
McDonald's,0.0,0.0,"451 Lexington Ave E 45th St, New York, NY 10001",0.0,0.0
McDonald's,0.0,0.0,"220 W 42 At 7th Ave, New York, NY 10001",0.0,0.0
McDonald's,0.0,0.0,"2271 Broadway At West 82nd St, New York, NY 10001",0.0,0.0
McDonald's,0.0,0.0,"14 E 47th St 5th Ave, New York, NY 10001",0.0,0.0
McDonald's,0.0,0.0,"1499 3 Avenue At East 84th St, New York, NY 10001",0.0,0.0
McDonald's,0.0,0.0,"3410 Broadway At West 139th St, New York, NY 10001",0.0,0.0
McDonald's,0.0,0.0,"1651 Broadway At West 52nd St, New York, NY 10001",0.0,0.0
McDonald's,0.0,0.0,"638 Columbus Avenue At West 91st St, New York, NY 10001",0.0,0.0
McDonald's,0.0,0.0,"47 W 57th St 5th Ave, New York, NY 10001",0.0,0.0
McDonald's,0.0,0.0,"166 W 46 At 7th Ave, New York, NY 10001",0.0,0.0
McDonald's,-74.777747,40.629459,"Highway 22 E, Whitehouse Station, NJ 08889",40.629459,-74.777747
McDonald's,-74.218239,39.993512,"950 Route 37 W, Toms River, NJ 08755",39.993512,-74.218239
McDonald's,0.0,0.0,"401 Park Ave S At 28 St, New York, NY 10016",0.0,0.0
McDonald's,0.0,0.0,"729 2nd Ave At 39 St, New York, NY 10016",0.0,0.0
McDonald's,-74.700343,40.560897,"944 Us Highway 202 S, Branchburg, NJ 08876",40.560897,-74.700343
McDonald's,-75.949413,39.607982,"Rte 40, North East, MD 21901",39.607982,-75.949413
McDonald's,-75.596453,40.551001,"Rt 222, Trexlertown, PA 18087",40.551001,-75.596453
McDonald's,0.0,0.0,"427 10th Ave, New York, NY 10001",0.0,0.0
McDonald's,0.0,0.0,"972 Avenue Of The Americas At 36 St, New York, NY 10018",0.0,0.0
McDonald's,-75.672874,39.626915,"Route 40, Newark, DE 19702",39.626915,-75.672874
McDonald's,-75.768816,39.660915,"State Road 4, Newark, DE 19713",39.660915,-75.768816
McDonald's,-75.665325,39.734792,"4625 Kirkwood Hwy, Wilmington, DE 19808",39.734792,-75.665325
McDonald's,-75.688026,39.779566,"Hockessin, DE 19707",39.779566,-75.688026
McDonald's,-74.728999,40.29833,"301 Brunswick Cir, Lawrenceville, NJ 08648",40.29833,-74.728999
McDonald's,-75.148141,40.394156,"5859 Easton Rd, Plumsteadville, PA 18947",40.394156,-75.148141
McDonald's,-75.600119,39.67009,"Route 13, New Castle, DE 19720",39.67009,-75.600119
McDonald's,-74.571008,40.102164,"102 E Main St, Wrightstown, NJ 08562",40.102164,-74.571008
McDonald's,-75.255685,40.376714,"303 Constitution Ave, Perkasie, PA 18944",40.376714,-75.255685
McDonald's,-75.634439,39.712915,"1 State St, Wilmington, DE 19804",39.712915,-75.634439
McDonald's,-75.703563,39.858488,"Scarlet Rd, Kennett Square, PA 19348",39.858488,-75.703563
McDonald's,-74.701227,40.146203,"Us Hwy No 130, Bordentown, NJ 08505",40.146203,-74.701227
McDonald's,-75.638353,40.040978,"402 Gordon Dr, Downingtown, PA 19341",40.040978,-75.638353
McDonald's,-75.54896,39.739072,"Wilmington, DE 19801",39.739072,-75.54896
McDonald's,0.0,0.0,"40 State St, Elmer, NJ 08318",0.0,0.0
McDonald's,-75.183123,40.30038,"800 Town Ctr, New Britain, PA 18901",40.30038,-75.183123
McDonald's,-75.295058,40.277281,"1511 Bethlehem Pike, Hatfield, PA 19440",40.277281,-75.295058
McDonald's,0.0,0.0,"3802 Queens Blvd, Long Island City, NY 11101",0.0,0.0
McDonald's,-75.536393,40.046415,"84 Lancaster Ave, Frazer, PA 19355",40.046415,-75.536393
McDonald's,-74.750749,39.997145,"1660 Route 38, Mount Holly, NJ 08060",39.997145,-74.750749
McDonald's,-74.911848,40.175828,"749 E Lincoln Hwy, Langhorne, PA 19047",40.175828,-74.911848
McDonald's,-75.384684,40.144198,"635 S Trooper Rd, Audubon, PA 19403",40.144198,-75.384684
McDonald's,-75.111036,39.707114,"N Delsea Dr, Glassboro, NJ 08028",39.707114,-75.111036
McDonald's,-73.921019,40.743467,"4506 Greenpoint Ave, Sunnyside, NY 11104",40.743467,-73.921019
McDonald's,-75.384684,40.144198,"689 W Germantown Pike, East Norriton, PA 19403",40.144198,-75.384684
McDonald's,-75.056494,39.772775,"3501 Route 42, Turnersville, NJ 08012",39.772775,-75.056494
McDonald's,-74.917936,39.89416,"W Route 70, Marlton, NJ 08053",39.89416,-74.917936
McDonald's,-73.976274,40.643997,"573 Church Ave, Brooklyn, NY 11218",40.643997,-73.976274
McDonald's,-75.208336,40.174305,"119 W Butler Ave, Ambler, PA 19002",40.174305,-75.208336
McDonald's,-75.162389,39.952152,"S Chris Columbus Blvd, Philadelphia, PA 19019",39.952152,-75.162389
McDonald's,-75.162389,39.952152,"8800 Essington Ave, Philadelphia, PA 19019",39.952152,-75.162389
McDonald's,-75.22446,40.042711,"Henry Ave, Philadelphia, PA 19128",40.042711,-75.22446
McDonald's,-75.171019,39.996219,"N Broad St, Philadelphia, PA 19132",39.996219,-75.171019
McDonald's,-75.162389,39.952152,"Christopher Columbus Blvd S, Philadelphia, PA 19019",39.952152,-75.162389
McDonald's,-73.9325,40.761997,"3136 21st St, Astoria, NY 11106",40.761997,-73.9325
McDonald's,-73.889949,40.7033,"5634 Myrtle Ave, Ridgewood, NY 11385",40.7033,-73.889949
McDonald's,-74.957239,40.0514,"4057 Route 130, Delran, NJ 08075",40.0514,-74.957239
McDonald's,-74.929974,39.96046,"1108 Route 73, Mount Laurel, NJ 08054",39.96046,-74.929974
McDonald's,-75.307165,39.885472,"800 Chester Pike, Prospect Park, PA 19076",39.885472,-75.307165
McDonald's,-75.308538,39.977448,"Havertown, PA 19083",39.977448,-75.308538
McDonald's,-75.29747,40.001561,"111 W Lancaster Ave, Ardmore, PA 19003",40.001561,-75.29747
McDonald's,-75.162158,39.914128,"2033 S Broad St, Philadelphia, PA 19148",39.914128,-75.162158
McDonald's,-75.162389,39.952152,"Suburban Station Concourse, Phila, PA 19197",39.952152,-75.162389
McDonald's,-74.711669,40.14602,"255 U S Hwy No 130, Bordentown, NJ 08505",40.14602,-74.711669
McDonald's,-75.736879,40.278263,"1188 ben Franklin Hwy W, Douglassville, PA 19518",40.278263,-75.736879
McDonald's,-117.334539,33.975508,"2242 University Ave, Riverside, CA 92507",33.975508,-117.334539
McDonald's,-73.904227,40.72404,"6935 Grand Ave, Maspeth, NY 11378",40.72404,-73.904227
McDonald's,-117.374709,34.109,"260 E Foothill Blvd, Rialto, CA 92376",34.109,-117.374709
McDonald's,0.0,0.0,"31822 del Obispo St, San Juan Capistrano, CA 92675",0.0,0.0
McDonald's,-117.54106,34.455061,"4015 Phelan Rd, Phelan, CA 92371",34.455061,-117.54106
McDonald's,-117.453578,34.088529,"10143 Sierra Ave, Fontana, CA 92335",34.088529,-117.453578
McDonald's,0.0,0.0,"1997 3rd Ave, New York, NY 10029",0.0,0.0
McDonald's,-117.453578,34.088529,"16063 Foothill Blvd, Fontana, CA 92335",34.088529,-117.453578
McDonald's,-73.908548,40.77704,"2250 31st St, Astoria, NY 11105",40.77704,-73.908548
McDonald's,-117.447227,33.998937,"8875 Limonite Ave, Riverside, CA 92509",33.998937,-117.447227
McDonald's,-118.562559,34.409651,"27103 McBean Pkwy, Valencia, CA 91355",34.409651,-118.562559
McDonald's,-117.930371,33.61655,"700 W Coast Hwy, Newport Beach, CA 92663",33.61655,-117.930371
McDonald's,-118.586887,34.390254,"25323 Chiquella Ln, Stevenson Ranch, CA 91381",34.390254,-118.586887
McDonald's,-117.907745,33.680069,"3333 Bristol St Ste 2235, Costa Mesa, CA 92626",33.680069,-117.907745
McDonald's,-117.907911,33.723356,"3810 S Bristol St, Santa Ana, CA 92704",33.723356,-117.907911
McDonald's,-117.907745,33.680069,"3141 Harbor Blvd, Costa Mesa, CA 92626",33.680069,-117.907745
McDonald's,0.0,0.0,"6433 Platt Ave, West Hills, CA 91307",0.0,0.0
McDonald's,-118.594976,34.256321,"20932 Devonshire St, Chatsworth, CA 91311",34.256321,-118.594976
McDonald's,-118.617691,34.176979,"21901 Erwin St, Woodland Hills, CA 91367",34.176979,-118.617691
McDonald's,-118.617691,34.176979,"21300 Victory Blvd, Woodland Hills, CA 91367",34.176979,-118.617691
McDonald's,-73.878528,40.736912,"9505 57th Ave, Elmhurst, NY 11373",40.736912,-73.878528
McDonald's,-118.501119,34.278051,"11840 Balboa Blvd, Granada Hills, CA 91344",34.278051,-118.501119
McDonald's,-118.550159,34.238967,"19315 Parthenia St, Northridge, CA 91324",34.238967,-118.550159
McDonald's,-117.790391,33.849497,"1210 N Jefferson St, Anaheim, CA 92807",33.849497,-117.790391
McDonald's,0.0,0.0,"114 Village Ct, San Dimas, CA 91773",0.0,0.0
McDonald's,-117.854934,34.11697,"1835 E Route 66, Glendora, CA 91740",34.11697,-117.854934
McDonald's,-117.856958,34.088501,"121 N Grand Ave, Covina, CA 91724",34.088501,-117.856958
McDonald's,-118.422811,34.255678,"14024 Osborne St, Arleta, CA 91331",34.255678,-118.422811
McDonald's,-117.953061,33.843611,"740 N Euclid St, Anaheim, CA 92801",33.843611,-117.953061
McDonald's,-117.907527,34.097049,"1275 N Azusa Ave, Covina, CA 91722",34.097049,-117.907527
McDonald's,-117.962655,33.87711,"1341 S Brookhurst Rd, Fullerton, CA 92833",33.87711,-117.962655
McDonald's,-117.907527,34.097049,"928 N Azusa Ave, Covina, CA 91722",34.097049,-117.907527
McDonald's,-117.939187,34.07215,"100 N Azusa Ave, West Covina, CA 91791",34.07215,-117.939187
McDonald's,-117.962655,33.87711,"1891 W Malvern Ave, Fullerton, CA 92833",33.87711,-117.962655
McDonald's,-118.011089,33.842912,"7861 Beach Blvd, Buena Park, CA 90620",33.842912,-118.011089
McDonald's,0.0,0.0,"3549 Broadway, New York, NY 10031",0.0,0.0
McDonald's,-117.939187,34.07215,"2501 S Azusa Ave, West Covina, CA 91792",34.07215,-117.939187
McDonald's,-118.43615,34.148972,"13925 Ventura Blvd, Sherman Oaks, CA 91423",34.148972,-118.43615
McDonald's,-117.95221,33.9338,"801 W Whittier Blvd, la Habra, CA 90631",33.9338,-117.95221
McDonald's,-118.351449,33.837722,"170 del Amo Fashion Sq, Torrance, CA 90503",33.837722,-118.351449
McDonald's,-118.315322,33.793741,"1728 Lomita Blvd, Lomita, CA 90717",33.793741,-118.315322
McDonald's,-73.940854,40.599451,"3540 Nostrand Ave, Brooklyn, NY 11229",40.599451,-73.940854
McDonald's,0.0,0.0,"13925 Ventura Blvd, Sherman Oaks, CA 91423",0.0,0.0
McDonald's,-117.95221,33.9338,"801 W Whittier Blvd, la Habra, CA 90631",33.9338,-117.95221
McDonald's,-118.351449,33.837722,"170 del Amo Fashion Sq, Torrance, CA 90503",33.837722,-118.351449
McDonald's,-118.113189,33.847728,"6741 Carson St, Lakewood, CA 90713",33.847728,-118.113189
McDonald's,-73.923494,40.819985,"65 E 161st St, Bronx, NY 10451",40.819985,-73.923494
McDonald's,-118.47296,34.009047,"2902 Pico Blvd, Santa Monica, CA 90405",34.009047,-118.47296
McDonald's,-118.000766,34.144272,"480 W Huntington Dr, Monrovia, CA 91016",34.144272,-118.000766
McDonald's,-118.314546,33.827008,"1452 W Carson St, Torrance, CA 90501",33.827008,-118.314546
McDonald's,-118.465049,33.992368,"2457 Lincoln Blvd, Venice, CA 90291",33.992368,-118.465049
McDonald's,-117.967982,33.998509,"3123 S Hacienda Blvd, Hacienda Heights, CA 91745",33.998509,-117.967982
McDonald's,-118.011948,33.929022,"15710 Leffingwell Rd, Whittier, CA 90604",33.929022,-118.011948
McDonald's,0.0,0.0,"11970 Ventura Blvd, Studio City, CA 91604",0.0,0.0
McDonald's,-118.147675,33.850345,"2707 Carson St, Lakewood, CA 90712",33.850345,-118.147675
McDonald's,-118.113189,33.847728,"4848 Woodruff Ave, Lakewood, CA 90713",33.847728,-118.113189
McDonald's,-118.427199,34.036088,"11300 National Blvd, Los Angeles, CA 90064",34.036088,-118.427199
McDonald's,-118.432022,34.001928,"12975 W Jefferson Blvd, Los Angeles, CA 90066",34.001928,-118.432022
McDonald's,0.0,0.0,"10451 Santa Monica Blvd, Los Angeles, CA 90025",0.0,0.0
McDonald's,-118.329432,33.869512,"18145 Crenshaw Blvd, Torrance, CA 90504",33.869512,-118.329432
McDonald's,-73.844057,40.786076,"1516 College Point Blvd, College Point, NY 11356",40.786076,-73.844057
McDonald's,-118.19997,34.208445,"449 Foothill Blvd, la Canada, CA 91011",34.208445,-118.19997
McDonald's,-73.822545,40.689793,"11905 Liberty Ave, South Richmond Hill, NY 11419",40.689793,-73.822545
McDonald's,-73.825236,40.768229,"4018 Main St, Flushing, NY 11354",40.768229,-73.825236
McDonald's,-118.147675,33.850345,"158 Lakewood Center Mall, Lakewood, CA 90712",33.850345,-118.147675
McDonald's,-73.825236,40.768229,"13661 Roosevelt Ave, Flushing, NY 11354",40.768229,-73.825236
McDonald's,-118.427199,34.036088,"10611 W Pico Blvd, Los Angeles, CA 90064",34.036088,-118.427199
McDonald's,-118.351849,33.887278,"15606 Hawthorne Blvd, Lawndale, CA 90260",33.887278,-118.351849
McDonald's,-118.32448,34.171543,"1701 W Olive Ave, Burbank, CA 91506",34.171543,-118.32448
McDonald's,-118.181944,33.86461,"5020 Long Beach Blvd, Long Beach, CA 90805",33.86461,-118.181944
McDonald's,-118.181944,33.86461,"5860 Cherry Ave, Long Beach, CA 90805",33.86461,-118.181944
McDonald's,-73.825236,40.768229,"14401 Northern Blvd, Flushing, NY 11354",40.768229,-73.825236
McDonald's,-118.398153,33.995662,"4835 Sepulveda Blvd, Culver City, CA 90230",33.995662,-118.398153
McDonald's,-118.014894,34.071321,"11612 Valley Blvd, el Monte, CA 91732",34.071321,-118.014894
McDonald's,-118.033274,33.967419,"8840 Painter Ave, Whittier, CA 90602",33.967419,-118.033274
McDonald's,-73.809478,40.700828,"8784 Sutphin Blvd, Jamaica, NY 11435",40.700828,-73.809478
McDonald's,-118.297212,33.892178,"1419 W Redondo Beach Blvd, Gardena, CA 90247",33.892178,-118.297212
McDonald's,-118.044184,34.04568,"1185 Durfee Ave, South El Monte, CA 91733",34.04568,-118.044184
McDonald's,-118.357633,33.956566,"401 W Manchester Blvd, Inglewood, CA 90301",33.956566,-118.357633
McDonald's,-118.32849,33.935935,"2900 W Imperial Hwy, Inglewood, CA 90303",33.935935,-118.32849
McDonald's,-118.241612,34.136573,"1326 E Colorado St, Glendale, CA 91205",34.136573,-118.241612
McDonald's,-73.809478,40.700828,"9067 Sutphin Blvd, Jamaica, NY 11435",40.700828,-73.809478
McDonald's,-118.085027,34.063792,"720 San Gabriel Blvd, Rosemead, CA 91770",34.063792,-118.085027
McDonald's,-118.339099,34.01,"3650 W Martin Luther King Jr Blvd # BI, Los Angeles, CA 90008",34.01,-118.339099
McDonald's,-118.085027,34.063792,"7503 Garvey Ave, Rosemead, CA 91770",34.063792,-118.085027
McDonald's,-118.205774,33.956305,"3309 Tweedy Blvd, South Gate, CA 90280",33.956305,-118.205774
McDonald's,-73.825236,40.768229,"15514 Roosevelt Ave, Flushing, NY 11354",40.768229,-73.825236
McDonald's,-118.152899,33.99718,"6350 E Washington Blvd, Commerce, CA 90040",33.99718,-118.152899
McDonald's,-118.14186,34.049196,"950 W Floral Dr, Monterey Park, CA 91754",34.049196,-118.14186
McDonald's,-118.264036,34.052797,"811 W 7th St Apt W, Los Angeles, CA 90017",34.052797,-118.264036
McDonald's,-117.639387,33.54877,"27612 Antonio Pkwy, Ladera Ranch, CA 92694",33.54877,-117.639387
McDonald's,-117.459758,33.908683,"10141 Magnolia Ave, Riverside, CA 92503",33.908683,-117.459758
McDonald's,-118.445319,34.046465,"11920 Wilshire Blvd, West Los Angeles, CA 90025",34.046465,-118.445319
McDonald's,-118.011089,33.842912,"7050 Knott Ave, Buena Park, CA 90620",33.842912,-118.011089
McDonald's,-118.473527,34.026462,"2712 Santa Monica Blvd, Santa Monica, CA 90404",34.026462,-118.473527
McDonald's,-94.977726,29.368316,"2300 Gulf Fwy, La Marque, TX 77568",29.368316,-94.977726
McDonald's,-94.954023,30.357175,"441 W Southline St, Cleveland, TX 77327",30.357175,-94.954023
McDonald's,0.0,0.0,"9805 S Main At 610 S Loop, Houston, TX 77025",0.0,0.0
McDonald's,-95.092118,29.504473,"113 N Interstate 45, League City, TX 77573",29.504473,-95.092118
McDonald's,-95.739637,29.614224,"2006 Thompson Rd, Richmond, TX 77469",29.614224,-95.739637
McDonald's,-95.549074,30.198685,"6730 Woodlands Pkwy, Spring, TX 77382",30.198685,-95.549074
McDonald's,-95.357577,29.551587,"2607 Broadway St, Pearland, TX 77584",29.551587,-95.357577
McDonald's,-95.268017,29.560948,"3117 S Main St, Pearland, TX 77581",29.560948,-95.268017
McDonald's,-95.146066,29.649565,"5200 Fairmont Pkwy, Pasadena, TX 77505",29.649565,-95.146066
McDonald's,-73.810619,40.785194,"16011 Willets Point Blvd, Whitestone, NY 11357",40.785194,-73.810619
McDonald's,-95.176455,29.996106,"6626 Fm 1960 Rd E, Humble, TX 77346",29.996106,-95.176455
McDonald's,-95.288699,30.009245,"3203 Fm 1960 Rd E, Humble, TX 77338",30.009245,-95.288699
McDonald's,-95.542359,29.547728,"5501 Highway 6, Missouri City, TX 77459",29.547728,-95.542359
McDonald's,0.0,0.0,"25222 Interstate 45 And Rayford Sa Rd, Spring, TX 77373",0.0,0.0
McDonald's,-95.592329,30.085874,"22610 State Highway 249, Tomball, TX 77375",30.085874,-95.592329
McDonald's,-95.574944,29.977064,"21189 State Highway 249, Houston, TX 77070",29.977064,-95.574944
McDonald's,0.0,0.0,"8520 Bissonnet St, Houston, TX 77074",0.0,0.0
McDonald's,0.0,0.0,"7075 Fm 1960 Rd W, Houston, TX 77069",0.0,0.0
McDonald's,-73.781678,40.780724,"20006 Cross Island Pkwy, Bayside, NY 11360",40.780724,-73.781678
McDonald's,0.0,0.0,"12350 Eastex Fwy, Houston, TX 77039",0.0,0.0
McDonald's,0.0,0.0,"1914 Aldine Bender Rd, Houston, TX 77032",0.0,0.0
McDonald's,0.0,0.0,"6615 Tidwell Rd, Houston, TX 77016",0.0,0.0
McDonald's,0.0,0.0,"1619 South Blvd, Houston, TX 77006",0.0,0.0
McDonald's,-73.839943,40.845932,"1325 Hutchinson River Pkwy, Bronx, NY 10461",40.845932,-73.839943
McDonald's,0.0,0.0,"2655 Richmond Ave, Staten Island, NY 10314",0.0,0.0
McDonald's,0.0,0.0,"17250 Fm 149 At Willowbrook Mall, Houston, TX 77001",0.0,0.0
McDonald's,-74.146928,40.603231,"2795 Richmond Ave, Staten Island, NY 10314",40.603231,-74.146928
McDonald's,-73.776928,40.674763,"16605 Rockaway Blvd, Jamaica, NY 11434",40.674763,-73.776928
McDonald's,-73.737022,40.694321,"J F K Airport, Jamaica, NY 11411",40.694321,-73.737022
McDonald's,-73.737022,40.694321,"166 Baisley Blvd 07, Jamaica, NY 11411",40.694321,-73.737022
McDonald's,-73.774343,40.763403,"4127 Bell Blvd, Bayside, NY 11361",40.763403,-73.774343
McDonald's,0.0,0.0,"500 Dallas St Ste 808, Houston, TX 77002",0.0,0.0
McDonald's,0.0,0.0,"1819 W Mount Houston Rd, Houston, TX 77038",0.0,0.0
McDonald's,0.0,0.0,"7140 Louetta Rd At Stuebner Airli Rd, Spring, TX 77379",0.0,0.0
McDonald's,-95.745704,29.748946,"22140 Westheimer Pkwy, Katy, TX 77450",29.748946,-95.745704
McDonald's,-104.910974,39.11684,"450 S Highway 105, Palmer Lake, CO 80133",39.11684,-104.910974
McDonald's,-105.60001,39.745068,"Po Box 1530, Idaho Springs, CO 80452",39.745068,-105.60001
McDonald's,-105.041363,40.037325,"3650 State Highway 52, Longmont, CO 80516",40.037325,-105.041363
McDonald's,-73.760264,40.746854,"22128 Horace Harding Expy, Oakland Gardens, NY 11364",40.746854,-73.760264
McDonald's,-105.149935,39.962804,"Louisville, CO 80027",39.962804,-105.149935
McDonald's,-105.047409,39.937512,"1250 E 1st Ave, Broomfield, CO 80020",39.937512,-105.047409
McDonald's,0.0,0.0,"3267 Richmond Ave, Staten Island, NY 10312",0.0,0.0
McDonald's,-74.082609,40.895475,"Saddle Brook Mall, Saddle Brook, NJ 07663",40.895475,-74.082609
McDonald's,-74.268514,40.696105,"Union, NJ 07083",40.696105,-74.268514
McDonald's,-74.268514,40.696105,"Union Vaus Hall Rd, Union, NJ 07083",40.696105,-74.268514
McDonald's,-105.101464,39.795746,"9825 W 58th Ave, Arvada, CO 80002",39.795746,-105.101464
McDonald's,-105.101464,39.795746,"Arvada, CO 80002",39.795746,-105.101464
McDonald's,-105.064774,39.82616,"6590 Wadsworth Blvd, Arvada, CO 80003",39.82616,-105.064774
McDonald's,-105.004343,39.645822,"3601 S Federal Blvd, Englewood, CO 80110",39.645822,-105.004343
McDonald's,-73.73233,40.761353,"25001 Northern Blvd, Little Neck, NY 11362",40.761353,-73.73233
McDonald's,-104.879034,39.578837,"10555 E Briarwood Cir, Centennial, CO 80112",39.578837,-104.879034
McDonald's,-73.846924,40.890974,"4174 White Plains Rd, Bronx, NY 10466",40.890974,-73.846924
McDonald's,-105.008549,39.868151,"9190 Federal Blvd, Federal Heights, CO 80260",39.868151,-105.008549
McDonald's,-104.959467,39.863041,"10195 Washington St, Thornton, CO 80229",39.863041,-104.959467
McDonald's,-104.885394,39.61254,"5251 Dtc Pkwy, Greenwood Village, CO 80111",39.61254,-104.885394
McDonald's,-104.950978,39.89955,"3690 E 104th Ave, Thornton, CO 80233",39.89955,-104.950978
McDonald's,-104.969809,39.760132,"1300 E 21st Ave, Denver, CO 80205",39.760132,-104.969809
McDonald's,-104.838014,39.698099,"12900 E Mississippi Ave, Aurora, CO 80012",39.698099,-104.838014
McDonald's,0.0,0.0,"4420 Western Center Blvd, Haltom City, TX 76137",0.0,0.0
McDonald's,-74.274219,40.605275,"2024 Us Highway 1, Rahway, NJ 07065",40.605275,-74.274219
McDonald's,-97.216634,32.860447,"6401 NE Loop 820 Ste 9740 0, North Richland Hills, TX 76180",32.860447,-97.216634
McDonald's,-97.163879,32.66114,"5700 Forest Bend Dr # 817, Arlington, TX 76017",32.66114,-97.163879
McDonald's,-97.216634,32.860447,"7451 Davis Blvd, North Richland Hills, TX 76180",32.860447,-97.216634
McDonald's,-97.028163,33.12117,"8300 S Stemmons Fwy, Hickory Creek, TX 75065",33.12117,-97.028163
McDonald's,-97.147038,32.944259,"101 E Northwest Pkwy, Grapevine, TX 76092",32.944259,-97.147038
McDonald's,-97.163879,32.66114,"4801 S Cooper St, Arlington, TX 76017",32.66114,-97.163879
McDonald's,-96.94967,32.58857,"200 E F M Rd 1382, Cedar Hill, TX 75104",32.58857,-96.94967
McDonald's,-97.004609,32.7288,"2422 W Pioneer Pkwy, Grand Prairie, TX 75051",32.7288,-97.004609
McDonald's,-96.984059,32.968725,"S Denton Tap Rd, Coppell, TX 75019",32.968725,-96.984059
McDonald's,-97.013649,32.766222,"2810 NE Green Oaks Blvd, Grand Prairie, TX 75050",32.766222,-97.013649
McDonald's,-96.906651,32.646001,"259 N I 35 E Sr, Duncanville, TX 75116",32.646001,-96.906651
McDonald's,-96.806618,33.036556,"W Parker Rd, Plano, TX 75093",33.036556,-96.806618
McDonald's,-96.956246,32.845644,"2410 N Story Rd, Irving, TX 75062",32.845644,-96.956246
McDonald's,-96.881174,32.926827,"2899 Valley View Ln, Dallas, TX 75234",32.926827,-96.881174
McDonald's,0.0,0.0,"2045 Jericho Tpke, New Hyde Park, NY 11040",0.0,0.0
McDonald's,-96.89072,32.73596,"806 S Cockrell Hill Rd, Dallas, TX 75211",32.73596,-96.89072
McDonald's,-96.569734,32.90101,"3505 Highway 66, Rowlett, TX 75030",32.90101,-96.569734
McDonald's,-96.835394,32.92385,"13950 Midway Rd, Dallas, TX 75244",32.92385,-96.835394
McDonald's,-96.742579,32.974872,"300 N Coit Rd Ste 105, Richardson, TX 75080",32.974872,-96.742579
McDonald's,-96.789519,32.93305,"13350 Dallas Pkwy Ste 1415, Dallas, TX 75240",32.93305,-96.789519
McDonald's,-111.998407,41.271876,"1838 W 2700 N, Farr West, UT 84404",41.271876,-111.998407
McDonald's,-73.653504,40.694445,"380 Hempstead Tpke, West Hempstead, NY 11552",40.694445,-73.653504
McDonald's,-96.676058,32.91737,"1404 W Walnut St, Garland, TX 75042",32.91737,-96.676058
McDonald's,-73.880922,40.957342,"1200 Nepperhan Ave, Yonkers, NY 10703",40.957342,-73.880922
McDonald's,-96.893088,33.005536,"1050 W Frankford Rd, Carrollton, TX 75007",33.005536,-96.893088
McDonald's,-96.610688,32.766976,"102 Us Highway 80 E, Mesquite, TX 75149",32.766976,-96.610688
McDonald's,0.0,0.0,"44425 Airport Rd Ste 205, Lexington Park, MD 20619",0.0,0.0
McDonald's,-76.639795,39.478342,"11310 York Rd, Hunt Valley, MD 21030",39.478342,-76.639795
McDonald's,-76.484583,39.38733,"9106 Belair Rd, Baltimore, MD 21236",39.38733,-76.484583
McDonald's,-76.416932,39.340329,"3423 Eastern Blvd, Middle River, MD 21220",39.340329,-76.416932
McDonald's,-73.637625,40.637241,"35 Atlantic Ave, Oceanside, NY 11572",40.637241,-73.637625
McDonald's,-76.484583,39.38733,"5302 Campbell Blvd, Nottingham, MD 21236",39.38733,-76.484583
McDonald's,-76.484583,39.38733,"8118 Perry Hills Ct, Nottingham, MD 21236",39.38733,-76.484583
McDonald's,-76.484583,39.38733,"7927 Belair Rd, Nottingham, MD 21236",39.38733,-76.484583
McDonald's,-76.583657,39.400995,"1619 E Joppa Rd, Towson, MD 21286",39.400995,-76.583657
McDonald's,-77.726132,39.14494,"Rte 7, Purcellville, VA 20132",39.14494,-77.726132
McDonald's,-76.810706,39.464448,"12012 Reisterstown Rd, Glyndon, MD 21136",39.464448,-76.810706
McDonald's,-76.506199,39.264831,"3954 N Point Rd, Baltimore, MD 21222",39.264831,-76.506199
McDonald's,-76.497451,39.338785,"717 N North Point Rd, Rosedale, MD 21237",39.338785,-76.497451
McDonald's,-76.506199,39.264831,"7734 Wise Ave, Dundalk, MD 21222",39.264831,-76.506199
McDonald's,-77.289281,39.405229,"11700 Morning Glory Pl, New Market, MD 21774",39.405229,-77.289281
McDonald's,-76.728892,39.38045,"502 Reisterstown Rd, Baltimore, MD 21208",39.38045,-76.728892
McDonald's,-73.640789,40.726685,"637 Stewart Ave, Garden City, NY 11530",40.726685,-73.640789
McDonald's,-76.962835,39.401108,"1722 Liberty Rd, Sykesville, MD 21784",39.401108,-76.962835
McDonald's,0.0,0.0,"236 S High St, Baltimore, MD 21202",0.0,0.0
McDonald's,-76.798418,39.375083,"9500 Liberty Rd, Randallstown, MD 21133",39.375083,-76.798418
McDonald's,-76.718963,39.323579,"6005 Liberty Rd, Gwynn Oak, MD 21207",39.323579,-76.718963
McDonald's,-74.397343,40.650091,"1967 Us Highway 22, Scotch Plains, NJ 07076",40.650091,-74.397343
McDonald's,-76.589281,38.54072,"Rt 2, Prince Frederick, MD 20678",38.54072,-76.589281
McDonald's,-76.718963,39.323579,"6502 Security Blvd, Woodlawn, MD 21207",39.323579,-76.718963
McDonald's,-76.688798,39.283675,"1472 Martin Dr, Baltimore, MD 21229",39.283675,-76.688798
McDonald's,-77.348971,38.53151,"3500 Russell Rd # A, Quantico, VA 22134",38.53151,-77.348971
McDonald's,-76.507849,39.135052,"Fort Smallwood Rd, Riviera Beach, MD 21122",39.135052,-76.507849
McDonald's,-74.202403,40.424656,"State Highway 35, Keyport, NJ 07735",40.424656,-74.202403
McDonald's,-73.574414,40.756569,"1504 Old Country Rd Ste 227, Westbury, NY 11590",40.756569,-73.574414
McDonald's,-76.864646,39.273392,"9303 Baltimore National Pike, Ellicott City, MD 21042",39.273392,-76.864646
McDonald's,-77.516788,38.786099,"8301 Sudley Rd, Manassas, VA 20109",38.786099,-77.516788
McDonald's,-77.402047,39.131217,"19630 Fisher Ave, Poolesville, MD 20837",39.131217,-77.402047
McDonald's,-76.539247,38.921484,"113 Miechells Chance Rd, Edgewater, MD 21037",38.921484,-76.539247
McDonald's,-77.349161,38.644162,"4245 Dale Blvd, Woodbridge, VA 22193",38.644162,-77.349161
McDonald's,-77.433992,38.996047,"Sterling, VA 20166",38.996047,-77.433992
McDonald's,-77.266455,38.632617,"Lake Ridge Dr, Woodbridge, VA 22191",38.632617,-77.266455
McDonald's,-77.266455,38.632617,"Prince Williams Cmn, Woodbridge, VA 22191",38.632617,-77.266455
McDonald's,-77.406652,39.032957,"12301 Leesburg Pike, Sterling, VA 20163",39.032957,-77.406652
McDonald's,-74.419868,40.639,"United States Highway 22, North Plainfield, NJ 07060",40.639,-74.419868
McDonald's,-77.194155,39.180696,"9102 Rothbury Dr, Montgomery Village, MD 20886",39.180696,-77.194155
McDonald's,-77.194155,39.180696,"19388 Montgomery Village Ave, Montgomery Village, MD 20886",39.180696,-77.194155
McDonald's,-76.497451,39.338785,"6315 Kenwood Ave, Rosedale, MD 21237",39.338785,-76.497451
McDonald's,-76.697504,39.011645,"Route 3, Crofton, MD 21114",39.011645,-76.697504
McDonald's,-77.27962,38.789206,"5651 Burke Centre Pkwy, Burke, VA 22015",38.789206,-77.27962
McDonald's,-74.289459,41.003115,"500 State Route 23, Pompton Lakes, NJ 07442",41.003115,-74.289459
McDonald's,-74.39357,40.526798,"1075 Us Highway 1, Edison, NJ 08817",40.526798,-74.39357
McDonald's,-76.80717,39.103085,"3382 Fort Meade Rd, Laurel, MD 20724",39.103085,-76.80717
McDonald's,-77.147126,39.133235,"16701 Crabbs Branch Way, Rockville, MD 20855",39.133235,-77.147126
McDonald's,-76.851827,38.96407,"10585 Greenbelt Rd, Seabrook, MD 20706",38.96407,-76.851827
McDonald's,-73.777608,41.024886,"407 Central Ave, White Plains, NY 10606",41.024886,-73.777608
McDonald's,-76.613518,39.227958,"Ritchie Hwy, Brooklyn Park, MD 21225",39.227958,-76.613518
McDonald's,-76.899495,38.75731,"8905 Stuart Ln, Clinton, MD 20735",38.75731,-76.899495
McDonald's,-77.207445,38.804845,"5506 Backlick Rd, Springfield, VA 22151",38.804845,-77.207445
McDonald's,-77.102226,39.001518,"7600 Wisconsin Ave, Bethesda, MD 20814",39.001518,-77.102226
McDonald's,-76.877779,38.914969,"7708 Landover Rd, Landover, MD 20785",38.914969,-76.877779
McDonald's,-76.995486,38.802463,"180 Mall Cir Dr, Oxon Hill, MD 20750",38.802463,-76.995486
McDonald's,-77.114979,38.874593,"4238 Wilson Blvd, Arlington, VA 22203",38.874593,-77.114979
McDonald's,-77.041159,38.907077,"1200 17th St NW Ste 603, Washington, DC 20036",38.907077,-77.041159
McDonald's,-77.471101,38.751061,"Manassas Dr, Manassas, VA 20108",38.751061,-77.471101
McDonald's,-122.562591,46.90706,"505 W Yelm Ave, Yelm, WA 98597",46.90706,-122.562591
McDonald's,-122.507291,47.168104,"10417 S Tacoma Way, Lakewood, WA 98499",47.168104,-122.507291
McDonald's,-122.228598,47.248466,"Po Box, Sumner, WA 98390",47.248466,-122.228598
McDonald's,-74.01255,41.10168,"Rockland Ctr, Nanuet, NY 10954",41.10168,-74.01255
McDonald's,-122.507291,47.168104,"7413 Custer Rd W, Lakewood, WA 98499",47.168104,-122.507291
McDonald's,-122.24764,47.75736,"7234 NE Bothell Way, Bothell, WA 98028",47.75736,-122.24764
McDonald's,-122.198921,47.717436,"13636 100th Ave Ne, Kirkland, WA 98034",47.717436,-122.198921
McDonald's,-122.203763,47.619146,"169 Bellevue Sq, Bellevue, WA 98004",47.619146,-122.203763
McDonald's,-122.400251,47.64848,"2580 W Bertona St, Seattle, WA 98199",47.64848,-122.400251
McDonald's,-122.120513,47.365431,"17431 SE 272nd St, Covington, WA 98042",47.365431,-122.120513
McDonald's,-74.443809,40.49477,"97 Us Highway 1, New Brunswick, NJ 08901",40.49477,-74.443809
McDonald's,-122.350826,47.236335,"1737 51st Ave E, Fife, WA 98424",47.236335,-122.350826
McDonald's,-73.251214,41.14187,"267 Round Hill Rd, Fairfield, CT 06824",41.14187,-73.251214
McDonald's,-73.358521,41.141467,"701 Post Rd E, Westport, CT 06880",41.141467,-73.358521
McDonald's,-74.828785,40.853475,"Mountain Ave, Hackettstown, NJ 07840",40.853475,-74.828785
McDonald's,-73.853429,41.31532,"Mohegan Lake, NY 10547",41.31532,-73.853429
McDonald's,-74.777747,40.629459,"Highway 22 E, Whitehouse Station, NJ 08889",40.629459,-74.777747
McDonald's,-74.118753,41.125113,"55 Route 59, Suffern, NY 10901",41.125113,-74.118753
McDonald's,-73.993369,40.30376,"229 Broadway, Long Branch, NJ 07740",40.30376,-73.993369
McDonald's,-74.052519,40.293834,"State Route 35, Eatontown, NJ 07724",40.293834,-74.052519
McDonald's,-74.046938,40.123613,"2428 State Hwy No 35, Manasquan, NJ 08736",40.123613,-74.046938
McDonald's,-74.721399,40.908705,"Us Hwy No 206, Budd Lake, NJ 07828",40.908705,-74.721399
McDonald's,-74.591547,41.116716,"260 State Rt 23, Franklin, NJ 07416",41.116716,-74.591547
McDonald's,-74.230729,40.154665,"3410 U S Highway No 9, Howell, NJ 07731",40.154665,-74.230729
McDonald's,-74.230729,40.154665,"4900 U S Hwy No 9 S, Howell, NJ 07731",40.154665,-74.230729
McDonald's,-74.700343,40.560897,"944 Us Highway 202 S, Branchburg, NJ 08876",40.560897,-74.700343
McDonald's,-74.658885,40.938495,"175 Lakeside Blvd, Hopatcong, NJ 07843",40.938495,-74.658885
McDonald's,-73.504385,41.067072,"Conn Tnpk I-95 W, Darien, CT 06820",41.067072,-73.504385
McDonald's,-73.462393,40.681202,"5500 Sunrise Hwy, Massapequa, NY 11758",40.681202,-73.462393
McDonald's,-73.327318,40.904146,"18 Woodbine Ave, Northport, NY 11768",40.904146,-73.327318
McDonald's,-74.550334,40.90585,"Rockaway Town Square Mall, Rockaway, NJ 07866",40.90585,-74.550334
McDonald's,-73.374795,40.690565,"805 S Bay St, Lindenhurst, NY 11757",40.690565,-73.374795
McDonald's,-73.846673,41.176934,"214 S Highland Ave, Ossining, NY 10562",41.176934,-73.846673
McDonald's,-74.013009,40.21703,"1501 Main St, Asbury Park, NJ 07712",40.21703,-74.013009
McDonald's,-74.644074,40.681715,"40 Us Highway No 202, Bedminster, NJ 07921",40.681715,-74.644074
McDonald's,-74.548418,41.01932,"State Hwy No 15, Oak Ridge, NJ 07438",41.01932,-74.548418
McDonald's,-74.586359,40.54825,"100 N Main St, Manville, NJ 08835",40.54825,-74.586359
McDonald's,-74.586359,40.54825,"200 N Main St, Manville, NJ 08835",40.54825,-74.586359
McDonalds,-80.796094,41.871277,"1807 State Rd # 563N, Ashtabula, OH 44004",41.871277,-80.796094
McDonalds,-73.374195,40.819623,"160 Walt Whitman Rd, Huntington Station, NY 11746",40.819623,-73.374195
McDonalds,-73.579518,41.0416,"1207 E Putnam Ave, Riverside, CT 06878",41.0416,-73.579518
McDonalds,-73.374795,40.690565,"221 Sunrise Hwy, Lindenhurst, NY 11757",40.690565,-73.374795
McDonalds,-74.015989,40.27149,"2000 State Route 35, Oakhurst, NJ 07755",40.27149,-74.015989
McDonalds,-73.969397,41.195854,"254 Route 9w, Haverstraw, NY 10927",41.195854,-73.969397
McDonalds,-74.619389,40.570705,"142 Veterans Memorial Dr W, Somerville, NJ 08876",40.570705,-74.619389
McDonalds,-74.248751,40.313963,"Us Highway 9, Marlboro, NJ 07746",40.313963,-74.248751
McDonalds,-74.625104,40.592881,"680 Promenade Blvd, Bridgewater, NJ 08807",40.592881,-74.625104
McDonalds,-74.006255,41.190118,"33 Cavalry Dr, New City, NY 10956",41.190118,-74.006255
McDonalds,-73.365138,40.752747,"1585 Straight Path, Wyandanch, NY 11798",40.752747,-73.365138
McDonalds,-73.542244,41.051645,"25 Bedford St, Stamford, CT 06901",41.051645,-73.542244
McDonalds,-73.412477,40.817064,"Walt Whitman Rd, Huntington Station, NY 11747",40.817064,-73.412477
McDonalds,-74.030404,40.19778,"3542 State Route 66, Neptune, NJ 07753",40.19778,-74.030404
McDonalds,-74.486077,41.045611,"5734 Berkshire Valley Rd, Oak Ridge, NJ 07438",41.045611,-74.486077
McDonalds,-74.027097,40.207731,"9 State Route 35 N, Neptune, NJ 07753",40.207731,-74.027097
McDonalds,-74.510153,40.374699,"Us Hwy No 1, Dayton, NJ 08810",40.374699,-74.510153
McDonalds,-74.642499,40.866064,"275 State Route 10 E, Succasunna, NJ 07876",40.866064,-74.642499
McDonalds,-73.32737,40.762399,"1510 Deer Park Ave, Deer Park, NY 11729",40.762399,-73.32737
McDonalds,-74.656752,40.882187,"Ledgewood, NJ 07852",40.882187,-74.656752
McDonalds,-73.32359,40.734113,"1255 Deer Park Ave, North Babylon, NY 11703",40.734113,-73.32359
McDonalds,-74.653114,40.48255,"410 Us Highway 206, Hillsborough, NJ 08844",40.48255,-74.653114
McDonalds,-73.318814,40.865082,"1999 Jericho Tpke, East Northport, NY 11731",40.865082,-73.318814
McDonalds,-73.415527,40.687271,"900 Broadway, Amityville, NY 11701",40.687271,-73.415527
McDonalds,-73.298656,40.711208,"131 Sunrise Hwy, West Islip, NY 11795",40.711208,-73.298656
McDonalds,-73.410589,40.867637,"344 W Jericho Tpke, Huntington, NY 11743",40.867637,-73.410589
McDonalds,-73.298656,40.711208,"506 Union Blvd, West Islip, NY 11795",40.711208,-73.298656
McDonalds,-73.462393,40.681202,"260 Sunrise Mall, Massapequa, NY 11758",40.681202,-73.462393
McDonalds,-74.024339,40.18289,"505 18th Ave, Belmar, NJ 07719",40.18289,-74.024339
McDonalds,-74.696008,40.882177,"Us Hwy No 206, Flanders, NJ 07836",40.882177,-74.696008
McDonalds,-73.282379,40.839898,"2 Vanderbilt Motor Pkwy, Commack, NY 11725",40.839898,-73.282379
McDonalds,-74.024339,40.18289,"1831 State Route 35, Wall Township, NJ 07719",40.18289,-74.024339
McDonalds,-74.016035,40.290667,"372 Monmouth Rd, West Long Branch, NJ 07764",40.290667,-74.016035
McDonalds,-73.916269,41.288624,"20 Welcher Ave, Peekskill, NY 10566",41.288624,-73.916269
McDonalds,-74.698892,40.846918,"30 International Dr S, Flanders, NJ 07836",40.846918,-74.698892
McDonalds,-73.409224,41.0814,"726 Connecticut Ave, Norwalk, CT 06854",41.0814,-73.409224
McDonalds,-74.595849,40.33405,"Plainsboro Town Ctr, Plainsboro, NJ 08536",40.33405,-74.595849
McDonalds,-73.248274,40.723807,"1701 Sunrise Hwy, Bay Shore, NY 11706",40.723807,-73.248274
McDonalds,-73.244284,40.784,"762 Suffolk Ave, Brentwood, NY 11717",40.784,-73.244284
McDonalds,-73.436987,40.726099,"655 Fulton St, Farmingdale, NY 11735",40.726099,-73.436987
McDonalds,-74.511513,40.900116,"201 Us Highway 46, Rockaway, NJ 07866",40.900116,-74.511513
McDonalds,-73.205353,40.851457,"1033 W Jericho Tpke, Smithtown, NY 11787",40.851457,-73.205353
McDonalds,-74.443809,40.49477,"666 Somerset St, New Brunswick, NJ 08901",40.49477,-74.443809
McDonalds,-73.891033,41.293466,"3481 Crompond Rd, Cortlandt Manor, NY 10567",41.293466,-73.891033
McDonalds,-73.868269,40.829758,"1865 Bruckner Blvd, Bronx, NY 10472",40.829758,-73.868269
McDonalds,-73.629619,41.02525,"268 W Putnam Ave, Greenwich, CT 06830",41.02525,-73.629619
McDonalds,-74.524099,40.497508,"1065 Easton Ave, Somerset, NJ 08873",40.497508,-74.524099
McDonalds,-73.446074,41.1522,"24 Belden Ave, Norwalk, CT 06850",41.1522,-73.446074
McDonalds,-74.404224,40.42873,"730 State Route 18, East Brunswick, NJ 08816",40.42873,-74.404224
McDonalds,-74.147482,41.305831,"6 Commerce Dr S, Harriman, NY 10926",41.305831,-74.147482
McDonalds,-74.122847,41.327224,"501 Food Ct, Central Valley, NY 10917",41.327224,-74.122847
McDonalds,-73.407654,41.11366,"340 Main Ave, Norwalk, CT 06851",41.11366,-73.407654
McDonalds,-73.200815,40.784551,"13 W Suffolk Ave, Central Islip, NY 11722",40.784551,-73.200815
McDonalds,-73.200815,40.784551,"1850 Veterans Memorial Hwy, Central Islip, NY 11722",40.784551,-73.200815
McDonalds,-74.157778,41.085015,"150 State Rt 17, Mahwah, NJ 07430",41.085015,-74.157778
McDonalds,-74.348238,40.111587,"260 N County Line Rd, Jackson, NJ 08527",40.111587,-74.348238
McDonalds,-74.191601,41.324982,"501 State Route 17m, Monroe, NY 10950",41.324982,-74.191601
McDonalds,-73.205869,40.819676,"517 Route 111, Hauppauge, NY 11788",40.819676,-73.205869
McDonalds,-74.230729,40.154665,"6771 Us Highway 9, Howell, NJ 07731",40.154665,-74.230729
McDonalds,-73.407654,41.11366,"531 Westport Ave, Norwalk, CT 06851",41.11366,-73.407654
McDonalds,-74.191896,41.329834,"State Route 17m, Monroe, NY 10950",41.329834,-74.191896
McDonalds,-74.042394,40.07529,"State Route 35, Point Pleasant Beach, NJ 08742",40.07529,-74.042394
McDonalds,-74.303755,40.426834,"Us Hwy No 9 N, Old Bridge, NJ 08857",40.426834,-74.303755
McDonalds,-74.104139,40.0774,"1872 Route 88, Brick, NJ 08724",40.0774,-74.104139
McDonalds,-73.996247,41.34251,"W Point Hwy, Highland Falls, NY 10928",41.34251,-73.996247
McDonalds,-74.213584,40.09325,"Lakewood, NJ 08701",40.09325,-74.213584
McDonalds,-73.477511,40.779163,"818 Old Country Rd, Plainview, NY 11803",40.779163,-73.477511
McDonalds,-73.161594,40.882722,"614 Middle Country Rd, Saint James, NY 11780",40.882722,-73.161594
McDonalds,-74.753195,41.058566,"13 Hampton House Rd, Newton, NJ 07860",41.058566,-74.753195
McDonalds,-73.996247,41.34251,"104 W Point Hwy, Highland Falls, NY 10928",41.34251,-73.996247
McDonalds,-74.731704,40.28236,"213 Quaker Bridge Mall, Trenton, NJ 08648",40.28236,-74.731704
McDonalds,-73.129906,40.738207,"4498 Sunrise Hwy, Oakdale, NY 11769",40.738207,-73.129906
McDonalds,-74.261023,41.353728,"Chester, NY 10918",41.353728,-74.261023
McDonalds,-74.861029,40.5103,"74 Reaville Ave, Flemington, NJ 08822",40.5103,-74.861029
McDonalds,-73.111608,40.769579,"3850 Veterans Memorial Hwy, Bohemia, NY 11716",40.769579,-73.111608
McDonalds,-73.737955,41.370388,"Route 6, Mahopac, NY 10541",41.370388,-73.737955
McDonalds,-73.661793,41.349937,"Main, Croton Falls, NY 10519",41.349937,-73.661793
McDonalds,-73.115124,40.817715,"174 Portion Rd, Ronkonkoma, NY 11779",40.817715,-73.115124
McDonalds,-73.125609,40.904948,"2324 Nesconset Hwy, Stony Brook, NY 11790",40.904948,-73.125609
McDonalds,-73.082452,40.871647,"1724 Middle Country Rd, Centereach, NY 11720",40.871647,-73.082452
McDonalds,-74.620068,40.216054,"855 Marketplace Blvd, Trenton, NJ 08691",40.216054,-74.620068
McDonalds,-74.682434,40.232305,"State Highway 33, Mercerville, NJ 08619",40.232305,-74.682434
McDonalds,-73.748038,41.369579,"987 Route 6, Mahopac, NY 10541",41.369579,-73.748038
McDonalds,-73.251214,41.14187,"165 Round Hill Rd, Fairfield, CT 06824",41.14187,-73.251214
McDonalds,-74.414104,40.489404,"1 Penn Plz, New Brunswick, NJ 08901",40.489404,-74.414104
McDonalds,-73.103635,40.929525,"3990 Nesconset Hwy, East Setauket, NY 11733",40.929525,-73.103635
McDonalds,-73.082452,40.871647,"161 Centereach Mall, Centereach, NY 11720",40.871647,-73.082452
McDonalds,-73.251214,41.14187,"536 Post Rd, Fairfield, CT 06824",41.14187,-73.251214
McDonalds,-73.502698,40.817051,"573 Jericho Tpke, Syosset, NY 11791",40.817051,-73.502698
McDonalds,-122.272658,47.201628,"304 2nd St Ne, Puyallup, WA 98372",47.201628,-122.272658
McDonalds,-122.150382,47.558502,"4056 Factoria Blvd Se, Bellevue, WA 98006",47.558502,-122.150382
McDonalds,-122.623125,47.589148,"3580 Wheaton Way, Bremerton, WA 98310",47.589148,-122.623125
McDonalds,-122.134506,47.757299,"17450 140th Ave Ne, Woodinville, WA 98072",47.757299,-122.134506
McDonalds,-122.032235,47.383439,"23225 Maple Valley Black Diamond Rd Se, Maple Valley, WA 98038",47.383439,-122.032235
McDonalds,-74.404224,40.42873,"361 State Route 18, East Brunswick, NJ 08816",40.42873,-74.404224
McDonalds,-122.032235,47.383439,"26924 Maple Valley Black Diamond Rd Se, Maple Valley, WA 98038",47.383439,-122.032235
McDonalds,-122.447316,47.154439,"11012 Pacific Ave S, Tacoma, WA 98444",47.154439,-122.447316
McDonalds,-122.221136,47.856078,"16320 Bothell Everett Hwy, Mill Creek, WA 98012",47.856078,-122.221136
McDonalds,-122.33517,47.611023,"1950 6th Ave, Seattle, WA 98101",47.611023,-122.33517
McDonalds,-122.33517,47.611023,"1601 5th Ave, Seattle, WA 98101",47.611023,-122.33517
McDonalds,-122.33517,47.611023,"1524 3rd Ave # D, Seattle, WA 98101",47.611023,-122.33517
McDonalds,-122.346036,47.615487,"100 Lenora St, Seattle, WA 98121",47.615487,-122.346036
McDonalds,-122.346911,47.62989,"222 5th Ave N, Seattle, WA 98109",47.62989,-122.346911
McDonalds,-122.329291,47.602412,"1122 Madison St, Seattle, WA 98104",47.602412,-122.329291
McDonalds,-122.329291,47.602412,"801 Alaskan Way, Seattle, WA 98104",47.602412,-122.329291
McDonalds,-122.333443,47.57877,"2401 4th Ave S, Seattle, WA 98134",47.57877,-122.333443
McDonalds,-122.312973,47.31386,"1416 S 348th St, Federal Way, WA 98003",47.31386,-122.312973
McDonalds,-122.301833,47.584991,"2336 25th Ave S, Seattle, WA 98144",47.584991,-122.301833
McDonalds,-122.342697,47.670866,"4501 Stone Way N, Seattle, WA 98103",47.670866,-122.342697
McDonalds,-74.047336,41.117384,"106 Route 59, Spring Valley, NY 10977",41.117384,-74.047336
McDonalds,-122.298544,47.66354,"5146 25th Ave Ne, Seattle, WA 98105",47.66354,-122.298544
McDonalds,-122.374947,47.667315,"5400 14th Ave Nw, Seattle, WA 98107",47.667315,-122.374947
McDonalds,-122.312468,47.547544,"6145 4th Ave S, Seattle, WA 98108",47.547544,-122.312468
McDonalds,-122.228417,47.56464,"2807 78th Ave SE, Mercer Island, WA 98040",47.56464,-122.228417
McDonalds,-122.342697,47.670866,"8533 Greenwood Ave N, Seattle, WA 98103",47.670866,-122.342697
McDonalds,-122.275165,47.542051,"6305 Martin Luther King Jr Way S, Seattle, WA 98118",47.542051,-122.275165
McDonalds,-122.388366,47.537646,"6546 California Ave Sw, Seattle, WA 98136",47.537646,-122.388366
McDonalds,-122.379819,47.687791,"9000 Holman Rd Nw, Seattle, WA 98117",47.687791,-122.379819
McDonalds,-74.50017,40.578634,"716 Bound Brook Rd, Middlesex, NJ 08846",40.578634,-74.50017
McDonalds,-122.343869,47.73877,"2137 N Northgate Way, Seattle, WA 98133",47.73877,-122.343869
McDonalds,-122.312468,47.547544,"9610 Des Moines Memorial Dr, Seattle, WA 98108",47.547544,-122.312468
McDonalds,-122.275165,47.542051,"9304 Rainier Ave S, Seattle, WA 98118",47.542051,-122.275165
McDonalds,-122.356519,47.500751,"1516 Sw 114th St, Seattle, WA 98146",47.500751,-122.356519
McDonalds,-122.302266,47.757257,"14507 Bothell Way Ne, Shoreline, WA 98155",47.757257,-122.302266
McDonalds,-122.168508,47.613556,"13841 NE 20th St, Bellevue, WA 98005",47.613556,-122.168508
McDonalds,-122.343869,47.73877,"15201 Aurora Ave N, Shoreline, WA 98133",47.73877,-122.343869
McDonalds,-122.182237,47.509281,"1705 Ne 44th St, Renton, WA 98056",47.509281,-122.182237
McDonalds,-122.188505,47.678302,"8515 124th Ave NE, Kirkland, WA 98033",47.678302,-122.188505
McDonalds,-122.531902,47.642997,"601 High School Rd NE, Bainbridge Island, WA 98110",47.642997,-122.531902
McDonalds,-122.143244,47.610379,"1401 156th Ave Ne, Bellevue, WA 98007",47.610379,-122.143244
McDonalds,-74.127385,40.331424,"610 Newman Springs Rd, Lincroft, NJ 07738",40.331424,-74.127385
McDonalds,-122.182237,47.509281,"13049 Newcastle Way, Newcastle, WA 98056",47.509281,-122.182237
McDonalds,-122.143244,47.610379,"3239 156th Ave Se, Bellevue, WA 98007",47.610379,-122.143244
McDonalds,-122.198921,47.717436,"12414 116th Ave Ne, Kirkland, WA 98034",47.717436,-122.198921
McDonalds,-122.254239,47.462201,"15210 Tukwila International Blvd, Tukwila, WA 98188",47.462201,-122.254239
McDonalds,-122.328393,47.444674,"15620 1st Ave S, Burien, WA 98148",47.444674,-122.328393
McDonalds,-122.201646,47.448723,"73 Rainier Ave S, Renton, WA 98055",47.448723,-122.201646
McDonalds,-74.070142,40.34921,"588 Shrewsbury Ave, Tinton Falls, NJ 07701",40.34921,-74.070142
McDonalds,-122.198921,47.717436,"12440 Ne 144th St, Kirkland, WA 98034",47.717436,-122.198921
McDonalds,-122.121707,47.674108,"16975 Redmond Way, Redmond, WA 98052",47.674108,-122.121707
McDonalds,-122.302266,47.757257,"20227 Ballinger Way Ne, Shoreline, WA 98155",47.757257,-122.302266
McDonalds,-122.139874,47.49357,"4411 Ne Sunset Blvd, Renton, WA 98059",47.49357,-122.139874
McDonalds,-122.201646,47.448723,"401 S Grady Way, Renton, WA 98055",47.448723,-122.201646
McDonalds,-122.182237,47.509281,"3209 Ne 4th St, Renton, WA 98056",47.509281,-122.182237
McDonalds,-122.202205,47.751392,"18012 Bothell Way Ne, Bothell, WA 98011",47.751392,-122.202205
McDonalds,-122.254239,47.462201,"16501 Southcenter Pkwy, Tukwila, WA 98188",47.462201,-122.254239
McDonalds,-122.369744,47.800781,"10124 Edmonds Way, Edmonds, WA 98020",47.800781,-122.369744
McDonalds,-122.336077,47.825795,"21420 Highway 99, Edmonds, WA 98026",47.825795,-122.336077
McDonalds,-122.59871,47.531499,"4225 Se Mile Hill Dr, Port Orchard, WA 98366",47.531499,-122.59871
McDonalds,-122.201646,47.448723,"17630 108th Ave Se, Renton, WA 98055",47.448723,-122.201646
McDonalds,-122.218728,47.79114,"22110 17th Ave Se, Bothell, WA 98021",47.79114,-122.218728
McDonalds,-122.041373,47.519282,"1305 NW Gilman Blvd, Issaquah, WA 98027",47.519282,-122.041373
McDonalds,-122.042492,47.623284,"615 228th Ave Ne, Sammamish, WA 98074",47.623284,-122.042492
McDonalds,-122.28369,47.811293,"19808 44th Ave W, Lynnwood, WA 98036",47.811293,-122.28369
McDonalds,-122.28369,47.811293,"19520 66th Ave W, Lynnwood, WA 98036",47.811293,-122.28369
McDonalds,-122.144886,47.445966,"14120 Se Petrovitsky Rd, Renton, WA 98058",47.445966,-122.144886
McDonalds,-122.263383,47.386782,"8320 S 212th St, Kent, WA 98032",47.386782,-122.263383
McDonalds,-122.51558,47.804959,"10977 Ne State Highway 104, Kingston, WA 98346",47.804959,-122.51558
McDonalds,-122.312763,47.394491,"22644 Pacific Hwy S, Des Moines, WA 98198",47.394491,-122.312763
McDonalds,-122.697414,47.574395,"3426 Kitsap Way, Bremerton, WA 98312",47.574395,-122.697414
McDonalds,-122.288955,47.839034,"17531 Highway 99, Lynnwood, WA 98037",47.839034,-122.288955
McDonalds,-122.634915,47.745979,"Poulsbo, WA 98370",47.745979,-122.634915
McDonalds,-122.647666,47.469387,"233 Bravo Ter, Port Orchard, WA 98367",47.469387,-122.647666
McDonalds,-122.692854,47.66217,"10444 Silverdale Way Nw, Silverdale, WA 98383",47.66217,-122.692854
McDonalds,-122.692854,47.66217,"10315 Silverdale Way Nw, Silverdale, WA 98383",47.66217,-122.692854
McDonalds,-122.263383,47.386782,"1236 W Meeker St, Kent, WA 98032",47.386782,-122.263383
McDonalds,-122.288955,47.839034,"1400 164th St Sw, Lynnwood, WA 98037",47.839034,-122.288955
McDonalds,-122.19432,47.404918,"10715 Se 240th St, Kent, WA 98031",47.404918,-122.19432
McDonalds,-122.288955,47.839034,"14923 Hwy 99, Lynnwood, WA 98037",47.839034,-122.288955
McDonalds,-122.634915,47.745979,"20533 Viking Ave Nw, Poulsbo, WA 98370",47.745979,-122.634915
McDonalds,-122.195156,47.369353,"10125 Se 256th St, Kent, WA 98030",47.369353,-122.195156
McDonalds,-122.312973,47.31386,"27515 Pacific Hwy S, Federal Way, WA 98003",47.31386,-122.312973
McDonalds,-122.120528,47.842921,"17520 State Route 9 SE, Snohomish, WA 98296",47.842921,-122.120528
McDonalds,-122.120528,47.842921,"17425 State Route 9 SE, Snohomish, WA 98296",47.842921,-122.120528
McDonalds,-122.251419,47.899889,"530 128th St Sw, Everett, WA 98204",47.899889,-122.251419
McDonalds,-122.301735,47.912693,"3717 Harbour Pointe Blvd Sw, Mukilteo, WA 98275",47.912693,-122.301735
McDonalds,-122.221136,47.856078,"3416 132nd St SE, Mill Creek, WA 98012",47.856078,-122.221136
McDonalds,-122.312973,47.31386,"2302 S 320th St, Federal Way, WA 98003",47.31386,-122.312973
McDonalds,-122.195597,47.893873,"316 Se Everett Mall Way, Everett, WA 98208",47.893873,-122.195597
McDonalds,-122.216362,47.304208,"1531 Auburn Way N, Auburn, WA 98002",47.304208,-122.216362
McDonalds,-122.598849,47.36771,"5050 Borgen Blvd Nw, Gig Harbor, WA 98332",47.36771,-122.598849
McDonalds,-122.195597,47.893873,"9606 19th Ave SE, Everett, WA 98208",47.893873,-122.195597
McDonalds,-122.195597,47.893873,"1402 SE Everett Mall Way, Everett, WA 98208",47.893873,-122.195597
McDonalds,-122.224188,47.944042,"7920 Evergreen Way, Everett, WA 98203",47.944042,-122.224188
McDonalds,-122.270659,47.307652,"1425 Supermall Way, Auburn, WA 98001",47.307652,-122.270659
McDonalds,-122.216362,47.304208,"702 Auburn Way S, Auburn, WA 98002",47.304208,-122.216362
McDonalds,-122.270659,47.307652,"1304 Supermall Way, Auburn, WA 98001",47.307652,-122.270659
McDonalds,-121.957496,47.856389,"13885 Fryelands Blvd, Monroe, WA 98272",47.856389,-121.957496
McDonalds,-121.957496,47.856389,"19515 State Route 2, Monroe, WA 98272",47.856389,-121.957496
McDonalds,-122.051357,47.935192,"917 Avenue D, Snohomish, WA 98290",47.935192,-122.051357
McDonalds,-122.216362,47.304208,"3920 A St Se, Auburn, WA 98002",47.304208,-122.216362
McDonalds,-122.608058,47.301229,"5500 Olympic Dr, Gig Harbor, WA 98335",47.301229,-122.608058
McDonalds,-122.882257,47.434023,"24200 Ne State Route 3, Belfair, WA 98528",47.434023,-122.882257
McDonalds,-122.201173,47.987788,"4020 Colby Ave, Everett, WA 98201",47.987788,-122.201173
McDonalds,-122.440955,47.248767,"802 Tacoma Ave S, Tacoma, WA 98402",47.248767,-122.440955
McDonalds,-122.499999,47.262502,"2203 N Pearl St, Tacoma, WA 98406",47.262502,-122.499999
McDonalds,-122.580445,47.170725,"Tacoma, WA 98401",47.170725,-122.580445
McDonalds,-122.201173,47.987788,"2001 Everett Ave, Everett, WA 98201",47.987788,-122.201173
McDonalds,-121.782669,47.49327,"735 SW Mt Si Blvd, North Bend, WA 98045",47.49327,-121.782669
McDonalds,-122.481136,47.209897,"4814 Center St, Tacoma, WA 98409",47.209897,-122.481136
McDonalds,-122.534651,47.22824,"6700 19th St W, University Place, WA 98466",47.22824,-122.534651
McDonalds,-122.481136,47.209897,"4502 S Steele St Ste 416 6, Tacoma, WA 98409",47.209897,-122.481136
McDonalds,-122.534651,47.22824,"3802 Bridgeport Way W, University Place, WA 98466",47.22824,-122.534651
McDonalds,-122.074192,48.021671,"507 State Route 9 NE, Lake Stevens, WA 98258",48.021671,-122.074192
McDonalds,-122.232474,47.203239,"1906 Main St, Sumner, WA 98390",47.203239,-122.232474
McDonalds,-122.445189,47.198992,"7217 Pacific Ave, Tacoma, WA 98408",47.198992,-122.445189
McDonalds,-73.52845,40.866999,"245 Pine Hollow Rd, Oyster Bay, NY 11771",40.866999,-73.52845
McDonalds,-73.857396,41.081371,"140 Wildey St, Tarrytown, NY 10591",41.081371,-73.857396
McDonalds,-122.28548,48.068402,"6303 33rd Ave Ne, Tulalip, WA 98271",48.068402,-122.28548
McDonalds,-121.792717,47.86607,"33901 State Route 2, Sultan, WA 98294",47.86607,-121.792717
McDonalds,-122.557777,47.164776,"8201 Steilacoom Blvd Sw, Lakewood, WA 98498",47.164776,-122.557777
McDonalds,-122.410855,47.136413,"10915 Portland Ave E, Tacoma, WA 98445",47.136413,-122.410855
McDonalds,-73.674087,41.013542,"321 Boston Post Rd, Port Chester, NY 10573",41.013542,-73.674087
McDonalds,-122.507291,47.168104,"6002 100th St SW, Lakewood, WA 98499",47.168104,-122.507291
McDonalds,-122.232474,47.203239,"21007 State Route 410 E, Bonney Lake, WA 98390",47.203239,-122.232474
McDonalds,-122.322636,47.14889,"4603 S Meridian, Puyallup, WA 98373",47.14889,-122.322636
McDonalds,-121.414817,47.121615,"110 Roosevelt Ave E, Enumclaw, WA 98022",47.121615,-121.414817
McDonalds,-122.151215,48.062791,"9720 State Ave, Marysville, WA 98270",48.062791,-122.151215
McDonalds,-122.28548,48.068402,"8924 34th Ave Ne, Tulalip, WA 98271",48.068402,-122.28548
McDonalds,-122.447316,47.154439,"14900 Pacific Ave S, Tacoma, WA 98444",47.154439,-122.447316
McDonalds,-122.335869,47.171426,"94th And South Hill Park Dr, Puyallup, WA 98371",47.171426,-122.335869
McDonalds,-122.557777,47.164776,"15004 Union Ave Sw, Lakewood, WA 98498",47.164776,-122.557777
McDonalds,-122.318836,47.105439,"17301 Meridian E, Puyallup, WA 98375",47.105439,-122.318836
McDonalds,-121.906894,48.06529,"502 W Stanley St, Granite Falls, WA 98252",48.06529,-121.906894
McDonalds,-122.194477,47.093045,"321 Washington Ave N, Orting, WA 98360",47.093045,-122.194477
McDonalds,-122.390878,47.07173,"20315 Mountain Hwy E, Spanaway, WA 98387",47.07173,-122.390878
McDonalds,-122.101733,48.187297,"3529 172nd St Ne, Arlington, WA 98223",48.187297,-122.101733
McDonalds,-122.772577,48.121205,"310 W Sims Way, Port Townsend, WA 98368",48.121205,-122.772577
McDonalds,-122.101733,48.187297,"7607 204th St Ne, Arlington, WA 98223",48.187297,-122.101733
McDonalds,-122.317849,48.210098,"26713 72nd Ave Nw, Stanwood, WA 98292",48.210098,-122.317849
McDonalds,-123.082603,47.225458,"100 E Wallace Kneeland Blvd, Shelton, WA 98584",47.225458,-123.082603
McDonalds,-122.802003,47.024839,"6000 Pacific Ave Se, Lacey, WA 98503",47.024839,-122.802003
McDonalds,-123.082603,47.225458,"2507 Olympic Hwy N, Shelton, WA 98584",47.225458,-123.082603
McDonalds,-122.802003,47.024839,"520 Sleater Kinney Rd Se, Lacey, WA 98503",47.024839,-122.802003
McDonalds,-122.878191,47.011663,"715 Plum St Se, Olympia, WA 98501",47.011663,-122.878191
McDonalds,-122.949888,47.067468,"2611 Harrison Ave Nw, Olympia, WA 98502",47.067468,-122.949888
McDonalds,-123.104874,48.07829,"107 S 7th Ave, Sequim, WA 98382",48.07829,-123.104874
McDonalds,-122.753196,47.007277,"4640 Whitman Ln Se, Lacey, WA 98513",47.007277,-122.753196
McDonalds,-122.643786,48.3067,"841 NE Midway Blvd, Oak Harbor, WA 98277",48.3067,-122.643786
McDonalds,-122.643786,48.3067,"100 Charles Porter Ave, Oak Harbor, WA 98277",48.3067,-122.643786
McDonalds,-73.51081,40.673859,"1946 Wantagh Ave, Wantagh, NY 11793",40.673859,-73.51081
McDonalds,-77.193553,38.866242,"3009 Gallows Rd, Falls Church, VA 22042",38.866242,-77.193553
McDonalds,-77.384017,38.873386,"13003 Lee Jackson Memorial Hwy, Fairfax, VA 22033",38.873386,-77.384017
McDonalds,-77.183624,38.77497,"6333 Brandon Ave, Springfield, VA 22150",38.77497,-77.183624
McDonalds,-74.33925,41.008116,"4 Riverside Sq, Bloomingdale, NJ 07403",41.008116,-74.33925
McDonalds,-77.516788,38.786099,"Nokesville Road, Manassas, VA 20109",38.786099,-77.516788
McDonalds,-77.478301,38.299676,"2300 Plank Rd, Fredericksburg, VA 22401",38.299676,-77.478301
McDonalds,-76.449346,39.307085,"1000 Eastern Blvd, Essex, MD 21221",39.307085,-76.449346
McDonalds,-76.917179,38.99169,"6219 Greenbelt Rd, Berwyn Heights, MD 20740",38.99169,-76.917179
McDonalds,-77.334457,38.848601,"3924 Old Lee Hwy, Fairfax, VA 22030",38.848601,-77.334457
McDonalds,-77.334457,38.848601,"10775 Lee Hwy, Fairfax, VA 22030",38.848601,-77.334457
McDonalds,-77.476949,38.750852,"9860 Liberia Ave, Manassas, VA 20110",38.750852,-77.476949
McDonalds,-77.065389,38.630515,"Route 210, Bryans Road, MD 20616",38.630515,-77.065389
McDonalds,-76.617404,39.099116,"680 Old Mill Rd, Millersville, MD 21108",39.099116,-76.617404
McDonalds,-77.021764,38.90229,"450 5th St Nw, Washington, DC 20001",38.90229,-77.021764
McDonalds,-76.989089,38.90404,"75 New York Ave NE, Washington, DC 20002",38.90404,-76.989089
McDonalds,-77.031091,38.904229,"1235 New York Ave NW, Washington, DC 20005",38.904229,-77.031091
McDonalds,-77.023889,38.881064,"400 C St SW, Washington, DC 20024",38.881064,-77.023889
McDonalds,-77.021764,38.90229,"700 Jefferson Dr SW, Washington, DC 20001",38.90229,-77.021764
McDonalds,-76.989089,38.90404,"839 H St NE, Washington, DC 20002",38.90404,-76.989089
McDonalds,-77.041594,38.89892,"750 17th St Nw, Washington, DC 20006",38.89892,-77.041594
McDonalds,-73.522183,40.763495,"358 Broadway Mall, Hicksville, NY 11801",40.763495,-73.522183
McDonalds,-76.974277,38.928647,"1901 9th St Ne, Washington, DC 20018",38.928647,-76.974277
McDonalds,-77.021764,38.90229,"2328 Georgia Ave Nw, Washington, DC 20001",38.90229,-77.021764
McDonalds,-77.059088,38.93363,"2616 Connecticut Ave NW, Washington, DC 20008",38.93363,-77.059088
McDonalds,-77.073916,38.894243,"1823 N Moore St, Arlington, VA 22209",38.894243,-77.073916
McDonalds,-77.057431,38.855251,"1100 S Hayes St, Arlington, VA 22202",38.855251,-77.057431
McDonalds,-76.973292,38.863436,"2529 Good Hope Rd SE, Washington, DC 20020",38.863436,-76.973292
McDonalds,-77.057431,38.855251,"2155 Crystal Plaza Arc, Arlington, VA 22202",38.855251,-77.057431
McDonalds,-76.99297,38.93937,"4950 S Dakota Ave NE, Washington, DC 20017",38.93937,-76.99297
McDonalds,-77.057431,38.855251,"2620 Jefferson Davis Hwy, Arlington, VA 22202",38.855251,-77.057431
McDonalds,-77.063733,38.835718,"121 W Glebe Rd, Alexandria, VA 22305",38.835718,-77.063733
McDonalds,-76.905085,38.885787,"4857 Marlboro Pike, Capitol Heights, MD 20743",38.885787,-76.905085
McDonalds,-76.99092,38.807254,"801 Southern Ave, Oxon Hill, MD 20745",38.807254,-76.99092
McDonalds,-77.114979,38.874593,"40 N Glebe Rd, Arlington, VA 22203",38.874593,-77.114979
McDonalds,-76.941256,38.823627,"3501 Branch Ave, Temple Hills, MD 20748",38.823627,-76.941256
McDonalds,-74.296507,40.471082,"Us Highway 9, Sayreville, NJ 08871",40.471082,-74.296507
McDonalds,-76.96423,38.96328,"3500 E West Hwy, Hyattsville, MD 20782",38.96328,-76.96423
McDonalds,-77.066537,38.966259,"5300 Wisconsin Ave NW, Washington, DC 20015",38.966259,-77.066537
McDonalds,-77.028729,38.977807,"7425 Georgia Ave Nw, Washington, DC 20012",38.977807,-77.028729
McDonalds,-76.99092,38.807254,"5501 Livingston Rd, Oxon Hill, MD 20745",38.807254,-76.99092
McDonalds,-76.921289,38.841534,"4835 Silver Hill Rd, Suitland, MD 20746",38.841534,-76.921289
McDonalds,-77.053324,38.807622,"1000 N Henry St, Alexandria, VA 22314",38.807622,-77.053324
McDonalds,-77.114979,38.874593,"5009 Wilson Blvd, Arlington, VA 22203",38.874593,-77.114979
McDonalds,-77.097805,38.861316,"5005 Columbia Pike, Arlington, VA 22204",38.861316,-77.097805
McDonalds,-77.096919,38.98637,"Bethesda Naval Base, Bethesda, MD 20813",38.98637,-77.096919
McDonalds,-77.097012,38.986256,"Montgomery Mall, Bethesda, MD 20813",38.986256,-77.097012
McDonalds,-76.919109,38.961653,"6228 Baltimore Ave, Riverdale, MD 20737",38.961653,-76.919109
McDonalds,-76.905085,38.885787,"6131 Martin Luther King Jr Hwy, Capitol Heights, MD 20743",38.885787,-76.905085
McDonalds,-76.890408,38.951658,"6200 Annapolis Rd, Hyattsville, MD 20784",38.951658,-76.890408
McDonalds,-77.084313,38.828304,"3646 King St, Alexandria, VA 22302",38.828304,-77.084313
McDonalds,-76.99092,38.807254,"5500 Saint Barnabas Rd, Oxon Hill, MD 20745",38.807254,-76.99092
McDonalds,-77.125916,38.904359,"4834 Lee Hwy, Arlington, VA 22207",38.904359,-77.125916
McDonalds,-76.972208,38.992352,"2306 University Blvd E, Hyattsville, MD 20783",38.992352,-76.972208
